{"type": "FeatureCollection", "features": [{"type": "Feature", "properties": {"ts_week": 870, "ts_sat": null, "status": "In Service", "id": "893", "address_fr": " CHEMIN VERT 12\n7730 NECHIN"}, "geometry": {"type": "Point", "coordinates": [3.252907, 50.674217]}}, {"type": "Feature", "properties": {"ts_week": 600, "ts_sat": null, "status": "In Service", "id": "89008149", "address_fr": "&#39;S GRAVENTAFELSTRAAT 23\n8980 PASSENDALE"}, "geometry": {"type": "Point", "coordinates": [3.015061, 50.906025]}}, {"type": "Feature", "properties": {"ts_week": 1020, "ts_sat": 690, "status": "In Service", "id": "28005078", "address_fr": "&#39;S HERENBAAN 178\n2840 REET"}, "geometry": {"type": "Point", "coordinates": [4.3699563, 51.1057138]}}, {"type": "Feature", "properties": {"ts_week": 600, "ts_sat": null, "status": "In Service", "id": "80006857", "address_fr": "&#39;S-HEER BOUDEWIJNSBURG 16\n8310 ASSEBROEK"}, "geometry": {"type": "Point", "coordinates": [3.24233, 51.188181]}}, {"type": "Feature", "properties": {"ts_week": 600, "ts_sat": null, "status": "In Service", "id": "30002884", "address_fr": "&#39;S-HERENWEGVELD 66\n3020 HERENT"}, "geometry": {"type": "Point", "coordinates": [4.6814919, 50.9021448]}}, {"type": "Feature", "properties": {"ts_week": 600, "ts_sat": null, "status": "In Service", "id": "93009251", "address_fr": "&#39;T ANGEREELSTRAAT 101\n9400 APPELTERRE-EICHEM"}, "geometry": {"type": "Point", "coordinates": [3.972988, 50.81364]}}, {"type": "Feature", "properties": {"ts_week": 600, "ts_sat": null, "status": "In Service", "id": "89008106", "address_fr": "&#39;T APPELGOEDJE 28\n8970 POPERINGE"}, "geometry": {"type": "Point", "coordinates": [2.710474, 50.851764]}}, {"type": "Feature", "properties": {"ts_week": 840, "ts_sat": null, "status": "In Service", "id": "85007226", "address_fr": "&#39;T HOGE 62\n8500 KORTRIJK"}, "geometry": {"type": "Point", "coordinates": [3.285728, 50.798675]}}, {"type": "Feature", "properties": {"ts_week": 600, "ts_sat": null, "status": "In Service", "id": "80006662", "address_fr": "&#39;T KLOOSTERHOF 38\n8200 SINT-MICHIELS"}, "geometry": {"type": "Point", "coordinates": [3.219019, 51.179522]}}, {"type": "Feature", "properties": {"ts_week": 870, "ts_sat": null, "status": "In Service", "id": "39006490", "address_fr": "&#39;T LO 34\n3930 HAMONT"}, "geometry": {"type": "Point", "coordinates": [5.5407587, 51.2342937]}}, {"type": "Feature", "properties": {"ts_week": 675, "ts_sat": null, "status": "In Service", "id": "28005137", "address_fr": "&#39;T PLEINTJE 13\n2861 ONZE-LIEVE-VROUW-WAVER"}, "geometry": {"type": "Point", "coordinates": [4.579876, 51.059899]}}, {"type": "Feature", "properties": {"ts_week": 975, "ts_sat": null, "status": "In Service", "id": "80006717", "address_fr": "&#39;T ZAND 18\n8000 BRUGGE"}, "geometry": {"type": "Point", "coordinates": [3.218189, 51.20515]}}, {"type": "Feature", "properties": {"ts_week": 1140, "ts_sat": 600, "status": "In Service", "id": "10000043", "address_fr": "GALERIES DU VINGT-CINQ AO\u00dbT 8\n1000 BRUXELLES"}, "geometry": {"type": "Point", "coordinates": [4.3515499, 50.8427501]}}, {"type": "Feature", "properties": {"ts_week": 1125, "ts_sat": null, "status": "In Service", "id": "40010345", "address_fr": "4\u00c8ME AVENUE 166\n4040 HERSTAL"}, "geometry": {"type": "Point", "coordinates": [5.605038, 50.694754]}}, {"type": "Feature", "properties": {"ts_week": 600, "ts_sat": null, "status": "In Service", "id": "93009300", "address_fr": "A. DE COCKSTRAAT 1\n9470 DENDERLEEUW"}, "geometry": {"type": "Point", "coordinates": [4.080761, 50.883224]}}, {"type": "Feature", "properties": {"ts_week": 1080, "ts_sat": 660, "status": "In Service", "id": "1467", "address_fr": "A. LAPIDESTRAAT 5\n3900 OVERPELT"}, "geometry": {"type": "Point", "coordinates": [5.4266499, 51.2155789]}}, {"type": "Feature", "properties": {"ts_week": 600, "ts_sat": null, "status": "In Service", "id": "93009302", "address_fr": "A. RODENBACHSTRAAT 97\n9470 DENDERLEEUW"}, "geometry": {"type": "Point", "coordinates": [4.066198, 50.895511]}}, {"type": "Feature", "properties": {"ts_week": 600, "ts_sat": null, "status": "In Service", "id": "80006908", "address_fr": "A. RUZETTELAAN 195\n8370 BLANKENBERGE"}, "geometry": {"type": "Point", "coordinates": [3.153629, 51.320771]}}, {"type": "Feature", "properties": {"ts_week": 600, "ts_sat": null, "status": "In Service", "id": "15002041", "address_fr": "A. VAUCAMPSLAAN 90\n1654 HUIZINGEN"}, "geometry": {"type": "Point", "coordinates": [4.269054, 50.750755]}}, {"type": "Feature", "properties": {"ts_week": 1140, "ts_sat": 600, "status": "In Service", "id": "10800690", "address_fr": "RUE A. ET M. HELLINCKX 26\n1083 GANSHOREN"}, "geometry": {"type": "Point", "coordinates": [4.311993, 50.869312]}}, {"type": "Feature", "properties": {"ts_week": 1020, "ts_sat": 690, "status": "In Service", "id": "47011839", "address_fr": "AACHENER STRASSE 10\n4731 EYNATTEN"}, "geometry": {"type": "Point", "coordinates": [6.083628, 50.69285]}}, {"type": "Feature", "properties": {"ts_week": 1065, "ts_sat": null, "status": "In Service", "id": "47011797", "address_fr": "AACHENER STRASSE 38\n4700 EUPEN"}, "geometry": {"type": "Point", "coordinates": [6.032624, 50.633896]}}, {"type": "Feature", "properties": {"ts_week": 600, "ts_sat": null, "status": "In Service", "id": "47011854", "address_fr": "AACHENER STRASSE 199\n4730 HAUSET"}, "geometry": {"type": "Point", "coordinates": [6.090385, 50.71473]}}, {"type": "Feature", "properties": {"ts_week": 600, "ts_sat": null, "status": "In Service", "id": "47011831", "address_fr": "AACHENER STRASSE 8\n4728 HERGENRATH"}, "geometry": {"type": "Point", "coordinates": [6.03068, 50.708851]}}, {"type": "Feature", "properties": {"ts_week": 600, "ts_sat": null, "status": "In Service", "id": "47011911", "address_fr": "AACHENER STRASSE 123\n4780 SANKT-VITH"}, "geometry": {"type": "Point", "coordinates": [6.131267, 50.288479]}}, {"type": "Feature", "properties": {"ts_week": 600, "ts_sat": null, "status": "In Service", "id": "47011832", "address_fr": "AACHENER STRASSE 77\n4728 HERGENRATH"}, "geometry": {"type": "Point", "coordinates": [6.035286, 50.716544]}}, {"type": "Feature", "properties": {"ts_week": 810, "ts_sat": null, "status": "In Service", "id": "85007242", "address_fr": "AALBEEKSESTRAAT 1\n8510 ROLLEGEM"}, "geometry": {"type": "Point", "coordinates": [3.261969, 50.76887]}}, {"type": "Feature", "properties": {"ts_week": 600, "ts_sat": null, "status": "In Service", "id": "98009789", "address_fr": "AALBROEKSTRAAT 103\n9890 SEMMERZAKE"}, "geometry": {"type": "Point", "coordinates": [3.658447, 50.934691]}}, {"type": "Feature", "properties": {"ts_week": 600, "ts_sat": null, "status": "In Service", "id": "37006234", "address_fr": "AALST DORP 11\n3800 AALST"}, "geometry": {"type": "Point", "coordinates": [5.21274, 50.7812961]}}, {"type": "Feature", "properties": {"ts_week": 600, "ts_sat": null, "status": "In Service", "id": "93009208", "address_fr": "AALSTERSESTEENWEG 181\n9400 NINOVE"}, "geometry": {"type": "Point", "coordinates": [4.030176, 50.844362]}}, {"type": "Feature", "properties": {"ts_week": 600, "ts_sat": null, "status": "In Service", "id": "93018401", "address_fr": "AALSTERSESTEENWEG 485\n9400 OKEGEM"}, "geometry": {"type": "Point", "coordinates": [4.049241, 50.865537]}}, {"type": "Feature", "properties": {"ts_week": 600, "ts_sat": null, "status": "In Service", "id": "92009059", "address_fr": "AALSTERSESTRAAT 30\n9280 LEBBEKE"}, "geometry": {"type": "Point", "coordinates": [4.110062, 50.987205]}}, {"type": "Feature", "properties": {"ts_week": 600, "ts_sat": null, "status": "In Service", "id": "99009957", "address_fr": "AALTERBAAN 176\n9990 MALDEGEM"}, "geometry": {"type": "Point", "coordinates": [3.453126, 51.198259]}}, {"type": "Feature", "properties": {"ts_week": 600, "ts_sat": null, "status": "In Service", "id": "98009618", "address_fr": "AALTERSESTEENWEG 130\n9800 ZEVEREN"}, "geometry": {"type": "Point", "coordinates": [3.502118, 50.995189]}}, {"type": "Feature", "properties": {"ts_week": 600, "ts_sat": null, "status": "In Service", "id": "98009766", "address_fr": "AALTERSTRAAT 2\n9880 AALTER"}, "geometry": {"type": "Point", "coordinates": [3.3718522, 51.099238]}}, {"type": "Feature", "properties": {"ts_week": 600, "ts_sat": null, "status": "In Service", "id": "98009767", "address_fr": "AALTERVELD 25\n9880 AALTER"}, "geometry": {"type": "Point", "coordinates": [3.459743, 51.0690874]}}, {"type": "Feature", "properties": {"ts_week": 600, "ts_sat": null, "status": "In Service", "id": "92009023", "address_fr": "AARD 4\n9260 SCHELLEBELLE"}, "geometry": {"type": "Point", "coordinates": [3.930232, 51.013899]}}, {"type": "Feature", "properties": {"ts_week": 975, "ts_sat": null, "status": "In Service", "id": "4503", "address_fr": "AARDEKEN 7A\n9940 ERTVELDE"}, "geometry": {"type": "Point", "coordinates": [3.745061, 51.174377]}}, {"type": "Feature", "properties": {"ts_week": 600, "ts_sat": null, "status": "In Service", "id": "93009210", "address_fr": "AARDEWEG 1\n9406 OUTER"}, "geometry": {"type": "Point", "coordinates": [3.99935, 50.834425]}}, {"type": "Feature", "properties": {"ts_week": 600, "ts_sat": null, "status": "In Service", "id": "36005757", "address_fr": "AARDLAAN 1\n3600 GENK"}, "geometry": {"type": "Point", "coordinates": [5.500352, 50.95648]}}, {"type": "Feature", "properties": {"ts_week": 840, "ts_sat": null, "status": "In Service", "id": "10002246", "address_fr": "RUE D&#39;ARLON 80\n1000 BRUXELLES"}, "geometry": {"type": "Point", "coordinates": [4.3733281, 50.8415917]}}, {"type": "Feature", "properties": {"ts_week": 810, "ts_sat": null, "status": "In Service", "id": "25004680", "address_fr": "AARSCHOTSEBAAN 300\n2590 BERLAAR"}, "geometry": {"type": "Point", "coordinates": [4.638511, 51.087848]}}, {"type": "Feature", "properties": {"ts_week": 810, "ts_sat": null, "status": "In Service", "id": "30002849", "address_fr": "AARSCHOTSESTEENWEG 918\n3012 WILSELE"}, "geometry": {"type": "Point", "coordinates": [4.7317908, 50.9368236]}}, {"type": "Feature", "properties": {"ts_week": 810, "ts_sat": null, "status": "In Service", "id": "30002848", "address_fr": "AARSCHOTSESTEENWEG 736\n3012 WILSELE"}, "geometry": {"type": "Point", "coordinates": [4.7238375, 50.9287444]}}, {"type": "Feature", "properties": {"ts_week": 720, "ts_sat": null, "status": "In Service", "id": "2358", "address_fr": "AARSCHOTSESTEENWEG 130\n3130 BETEKOM"}, "geometry": {"type": "Point", "coordinates": [4.7936407, 50.9886233]}}, {"type": "Feature", "properties": {"ts_week": 810, "ts_sat": null, "status": "In Service", "id": "30002846", "address_fr": "AARSCHOTSESTEENWEG 157\n3012 WILSELE"}, "geometry": {"type": "Point", "coordinates": [4.7135961, 50.9107502]}}, {"type": "Feature", "properties": {"ts_week": 810, "ts_sat": null, "status": "In Service", "id": "33003304", "address_fr": "AARSCHOTSESTEENWEG 33\n3300 TIENEN"}, "geometry": {"type": "Point", "coordinates": [4.927371, 50.814837]}}, {"type": "Feature", "properties": {"ts_week": 720, "ts_sat": null, "status": "In Service", "id": "22004043", "address_fr": "AARSCHOTSESTEENWEG 100C\n2230 HERSELT"}, "geometry": {"type": "Point", "coordinates": [4.864624413, 51.04521578]}}, {"type": "Feature", "properties": {"ts_week": 1005, "ts_sat": null, "status": "In Service", "id": "25004512", "address_fr": "AARSCHOTSESTEENWEG 81\n2500 LIER"}, "geometry": {"type": "Point", "coordinates": [4.584258, 51.117263]}}, {"type": "Feature", "properties": {"ts_week": 600, "ts_sat": null, "status": "In Service", "id": "33003305", "address_fr": "AARSCHOTSESTEENWEG 325\n3300 TIENEN"}, "geometry": {"type": "Point", "coordinates": [4.92478, 50.822492]}}, {"type": "Feature", "properties": {"ts_week": 810, "ts_sat": null, "status": "In Service", "id": "18002358", "address_fr": "AARSCHOTSESTRAAT 111\n1800 PEUTIE"}, "geometry": {"type": "Point", "coordinates": [4.4561382, 50.9260918]}}, {"type": "Feature", "properties": {"ts_week": 840, "ts_sat": null, "status": "In Service", "id": "10300280", "address_fr": "RUE D&#39;AERSCHOT 26\n1030 SCHAERBEEK"}, "geometry": {"type": "Point", "coordinates": [4.3622459, 50.8597274]}}, {"type": "Feature", "properties": {"ts_week": 600, "ts_sat": null, "status": "In Service", "id": "88007844", "address_fr": "AARTRIJKESTRAAT 204\n8820 TORHOUT"}, "geometry": {"type": "Point", "coordinates": [3.098697, 51.085851]}}, {"type": "Feature", "properties": {"ts_week": 810, "ts_sat": null, "status": "In Service", "id": "84007121", "address_fr": "AARTRIJKESTRAAT 59\n8480 EERNEGEM"}, "geometry": {"type": "Point", "coordinates": [3.02992, 51.126625]}}, {"type": "Feature", "properties": {"ts_week": 810, "ts_sat": null, "status": "In Service", "id": "80006746", "address_fr": "AARTRIJKSESTRAAT 77\n8211 AARTRIJKE"}, "geometry": {"type": "Point", "coordinates": [3.091296, 51.113885]}}, {"type": "Feature", "properties": {"ts_week": 825, "ts_sat": null, "status": "In Service", "id": "84006932", "address_fr": "AARTSHERTOGINNESTRAAT 38\n8400 OOSTENDE"}, "geometry": {"type": "Point", "coordinates": [2.918173, 51.22864]}}, {"type": "Feature", "properties": {"ts_week": 675, "ts_sat": null, "status": "In Service", "id": "24004339", "address_fr": "ABDIJLAAN 16\n2400 MOL"}, "geometry": {"type": "Point", "coordinates": [5.1900791, 51.2874918]}}, {"type": "Feature", "properties": {"ts_week": 600, "ts_sat": null, "status": "In Service", "id": "85007244", "address_fr": "ABDIJMOLENWEG 2\n8510 MARKE"}, "geometry": {"type": "Point", "coordinates": [3.239634, 50.804916]}}, {"type": "Feature", "properties": {"ts_week": 1035, "ts_sat": 600, "status": "In Service", "id": "26300", "address_fr": "PLACE DE L&#39;ABBAYE 2\n7784 WARNETON"}, "geometry": {"type": "Point", "coordinates": [2.949258, 50.752903]}}, {"type": "Feature", "properties": {"ts_week": 600, "ts_sat": null, "status": "In Service", "id": "93009330", "address_fr": "ABDIJSTRAAT 8\n9500 GERAARDSBERGEN"}, "geometry": {"type": "Point", "coordinates": [3.883834, 50.773961]}}, {"type": "Feature", "properties": {"ts_week": 600, "ts_sat": null, "status": "In Service", "id": "37006375", "address_fr": "ABDIJSTRAAT 7\n3890 KORTIJS"}, "geometry": {"type": "Point", "coordinates": [5.1498772, 50.7073468]}}, {"type": "Feature", "properties": {"ts_week": 1020, "ts_sat": null, "status": "In Service", "id": "39006479", "address_fr": "ABDIJSTRAAT 1\n3930 HAMONT"}, "geometry": {"type": "Point", "coordinates": [5.5475244, 51.2522402]}}, {"type": "Feature", "properties": {"ts_week": 915, "ts_sat": null, "status": "In Service", "id": "22004093", "address_fr": "ABDIJSTRAAT 40\n2260 TONGERLO"}, "geometry": {"type": "Point", "coordinates": [4.907257, 51.103773]}}, {"type": "Feature", "properties": {"ts_week": 1005, "ts_sat": null, "status": "In Service", "id": "2906", "address_fr": "ABDIJSTRAAT 1\n3800 SINT-TRUIDEN"}, "geometry": {"type": "Point", "coordinates": [5.185098, 50.818311]}}, {"type": "Feature", "properties": {"ts_week": 810, "ts_sat": null, "status": "In Service", "id": "10000087", "address_fr": "RUE DE L&#39;ABBAYE 2-2A\n1000 BRUXELLES"}, "geometry": {"type": "Point", "coordinates": [4.3702465, 50.8193651]}}, {"type": "Feature", "properties": {"ts_week": 600, "ts_sat": null, "status": "In Service", "id": "89008104", "address_fr": "ABEELSEWEG 144\n8970 POPERINGE"}, "geometry": {"type": "Point", "coordinates": [2.710425, 50.841338]}}, {"type": "Feature", "properties": {"ts_week": 600, "ts_sat": null, "status": "In Service", "id": "17002284", "address_fr": "ABEELSTRAAT 81\n1761 BORCHTLOMBEEK"}, "geometry": {"type": "Point", "coordinates": [4.102309, 50.848264]}}, {"type": "Feature", "properties": {"ts_week": 600, "ts_sat": null, "status": "In Service", "id": "89008105", "address_fr": "ABELESTATIONSTRAAT 2\n8970 POPERINGE"}, "geometry": {"type": "Point", "coordinates": [2.669447, 50.822646]}}, {"type": "Feature", "properties": {"ts_week": 825, "ts_sat": null, "status": "In Service", "id": "5523", "address_fr": "ABELESTRAAT 94\n8870 IZEGEM"}, "geometry": {"type": "Point", "coordinates": [3.18783, 50.919]}}, {"type": "Feature", "properties": {"ts_week": 1020, "ts_sat": 780, "status": "In Service", "id": "3277", "address_fr": "ABTSDREEF 10D\n2940 STABROEK"}, "geometry": {"type": "Point", "coordinates": [4.361723, 51.332539]}}, {"type": "Feature", "properties": {"ts_week": 600, "ts_sat": null, "status": "In Service", "id": "89007958", "address_fr": "ACACIALAAN 2\n8900 IEPER"}, "geometry": {"type": "Point", "coordinates": [2.896464, 50.857345]}}, {"type": "Feature", "properties": {"ts_week": 600, "ts_sat": null, "status": "In Service", "id": "90008530", "address_fr": "ACACIALAAN 22\n9080 LOCHRISTI"}, "geometry": {"type": "Point", "coordinates": [3.820414, 51.083801]}}, {"type": "Feature", "properties": {"ts_week": 600, "ts_sat": null, "status": "In Service", "id": "35005690", "address_fr": "ACACIALAAN 2\n3583 PAAL"}, "geometry": {"type": "Point", "coordinates": [5.193341, 51.0480775]}}, {"type": "Feature", "properties": {"ts_week": 1035, "ts_sat": null, "status": "In Service", "id": "18002448", "address_fr": "ACACIALAAN 2\n1840 LONDERZEEL"}, "geometry": {"type": "Point", "coordinates": [4.3103693, 51.0009369]}}, {"type": "Feature", "properties": {"ts_week": 1080, "ts_sat": 750, "status": "In Service", "id": "33003308", "address_fr": "ACADEMIESTRAAT 30\n3300 TIENEN"}, "geometry": {"type": "Point", "coordinates": [4.939586, 50.808029]}}, {"type": "Feature", "properties": {"ts_week": 810, "ts_sat": null, "status": "In Service", "id": "80006711", "address_fr": "ACHIEL VAN ACKERPLEIN 2\n8000 BRUGGE"}, "geometry": {"type": "Point", "coordinates": [3.21824, 51.213435]}}, {"type": "Feature", "properties": {"ts_week": 825, "ts_sat": null, "status": "In Service", "id": "11800836", "address_fr": "AVENUE ACHILLE REISDORFF 47\n1180 UCCLE"}, "geometry": {"type": "Point", "coordinates": [4.3248928, 50.7931668]}}, {"type": "Feature", "properties": {"ts_week": 600, "ts_sat": null, "status": "In Service", "id": "66012658", "address_fr": "ACHOUFFE 26\n6666 WIBRIN"}, "geometry": {"type": "Point", "coordinates": [5.745192, 50.150375]}}, {"type": "Feature", "properties": {"ts_week": 810, "ts_sat": null, "status": "In Service", "id": "26004854", "address_fr": "ACHT EEUWENLAAN 44\n2650 EDEGEM"}, "geometry": {"type": "Point", "coordinates": [4.4353353, 51.1531458]}}, {"type": "Feature", "properties": {"ts_week": 870, "ts_sat": null, "status": "In Service", "id": "24004340", "address_fr": "ACHTERBOS 72\n2400 MOL"}, "geometry": {"type": "Point", "coordinates": [5.0982896, 51.2018517]}}, {"type": "Feature", "properties": {"ts_week": 825, "ts_sat": null, "status": "In Service", "id": "90008420", "address_fr": "ACHTERDRIES 83\n9050 GENTBRUGGE"}, "geometry": {"type": "Point", "coordinates": [3.768277, 51.042073]}}, {"type": "Feature", "properties": {"ts_week": 600, "ts_sat": null, "status": "In Service", "id": "1581", "address_fr": "ACHTERLEE 1\n2460 LICHTAART"}, "geometry": {"type": "Point", "coordinates": [4.885141, 51.225187]}}, {"type": "Feature", "properties": {"ts_week": 1050, "ts_sat": null, "status": "In Service", "id": "22004133", "address_fr": "ACHTERSTENHOEK 24\n2275 LILLE"}, "geometry": {"type": "Point", "coordinates": [4.81188, 51.249245]}}, {"type": "Feature", "properties": {"ts_week": 870, "ts_sat": null, "status": "In Service", "id": "2740", "address_fr": "ACHTERSTRAAT 90\n2980 ZOERSEL"}, "geometry": {"type": "Point", "coordinates": [4.636132, 51.264177]}}, {"type": "Feature", "properties": {"ts_week": 1020, "ts_sat": 660, "status": "In Service", "id": "93009279", "address_fr": "ACHTERSTRAAT 1\n9450 HAALTERT"}, "geometry": {"type": "Point", "coordinates": [4.004319, 50.901808]}}, {"type": "Feature", "properties": {"ts_week": 1020, "ts_sat": 660, "status": "In Service", "id": "93009280", "address_fr": "ACHTERSTRAAT 1\n9450 HAALTERT"}, "geometry": {"type": "Point", "coordinates": [4.004319, 50.901808]}}, {"type": "Feature", "properties": {"ts_week": 600, "ts_sat": null, "status": "In Service", "id": "3317", "address_fr": "ACHTTIEN AUGUSTUSLAAN 151\n9230 WETTEREN"}, "geometry": {"type": "Point", "coordinates": [3.898165, 51.004114]}}, {"type": "Feature", "properties": {"ts_week": 825, "ts_sat": null, "status": "In Service", "id": "99009958", "address_fr": "ADEGEM DORP 28\n9991 ADEGEM"}, "geometry": {"type": "Point", "coordinates": [3.4865473, 51.2022893]}}, {"type": "Feature", "properties": {"ts_week": 1020, "ts_sat": 750, "status": "In Service", "id": "93009188", "address_fr": "ADMINISTRATIEF CENTRUM 1\n9340 LEDE"}, "geometry": {"type": "Point", "coordinates": [3.978386, 50.966946]}}, {"type": "Feature", "properties": {"ts_week": 840, "ts_sat": null, "status": "In Service", "id": "90008369", "address_fr": "ADOLF BAEYENSSTRAAT 56\n9040 SINT-AMANDSBERG"}, "geometry": {"type": "Point", "coordinates": [3.752079, 51.056114]}}, {"type": "Feature", "properties": {"ts_week": 600, "ts_sat": null, "status": "In Service", "id": "1846", "address_fr": "ADOLF DENONSTRAAT 2\n1831 DIEGEM"}, "geometry": {"type": "Point", "coordinates": [4.4360755, 50.8895198]}}, {"type": "Feature", "properties": {"ts_week": 600, "ts_sat": null, "status": "In Service", "id": "91008719", "address_fr": "ADOLF ROELENSLAAN 1\n9150 RUPELMONDE"}, "geometry": {"type": "Point", "coordinates": [4.279967, 51.13239]}}, {"type": "Feature", "properties": {"ts_week": 825, "ts_sat": null, "status": "In Service", "id": "10500373", "address_fr": "AVENUE ADOLPHE BUYL 157\n1050 IXELLES"}, "geometry": {"type": "Point", "coordinates": [4.3853356, 50.8120376]}}, {"type": "Feature", "properties": {"ts_week": 825, "ts_sat": null, "status": "In Service", "id": "10500372", "address_fr": "AVENUE ADOLPHE BUYL 110A\n1050 IXELLES"}, "geometry": {"type": "Point", "coordinates": [4.3828508, 50.8161932]}}, {"type": "Feature", "properties": {"ts_week": 1005, "ts_sat": null, "status": "In Service", "id": "90008421", "address_fr": "ADOLPHE DELLA FAILLELAAN 4\n9052 ZWIJNAARDE"}, "geometry": {"type": "Point", "coordinates": [3.716168, 51.004306]}}, {"type": "Feature", "properties": {"ts_week": 810, "ts_sat": null, "status": "In Service", "id": "10000019", "address_fr": "BOULEVARD ADOLPHE MAX 109\n1000 BRUXELLES"}, "geometry": {"type": "Point", "coordinates": [4.356701, 50.854325]}}, {"type": "Feature", "properties": {"ts_week": 870, "ts_sat": null, "status": "In Service", "id": "10700516", "address_fr": "RUE ADOLPHE WILLEMYNS 2\n1070 ANDERLECHT"}, "geometry": {"type": "Point", "coordinates": [4.3025356, 50.8389894]}}, {"type": "Feature", "properties": {"ts_week": 840, "ts_sat": null, "status": "In Service", "id": "10700515", "address_fr": "RUE ADOLPHE WILLEMYNS 264\n1070 ANDERLECHT"}, "geometry": {"type": "Point", "coordinates": [4.2913354, 50.8396822]}}, {"type": "Feature", "properties": {"ts_week": 675, "ts_sat": null, "status": "In Service", "id": "26004797", "address_fr": "ADRIAAN SANDERSLEI 94\n2630 AARTSELAAR"}, "geometry": {"type": "Point", "coordinates": [4.3936616, 51.1309907]}}, {"type": "Feature", "properties": {"ts_week": 810, "ts_sat": null, "status": "In Service", "id": "21003889", "address_fr": "ADRINKHOVENLAAN 96\n2150 BORSBEEK"}, "geometry": {"type": "Point", "coordinates": [4.4787053, 51.2004399]}}, {"type": "Feature", "properties": {"ts_week": 600, "ts_sat": null, "status": "In Service", "id": "41010839", "address_fr": "ADZEUX 73\n4141 LOUVEIGN\u00c9"}, "geometry": {"type": "Point", "coordinates": [5.7326982, 50.5212159]}}, {"type": "Feature", "properties": {"ts_week": 810, "ts_sat": null, "status": "In Service", "id": "839", "address_fr": "CHAUSS\u00c9E D&#39;AELBEKE 155\n7700 MOUSCRON"}, "geometry": {"type": "Point", "coordinates": [3.221902, 50.755201]}}, {"type": "Feature", "properties": {"ts_week": 900, "ts_sat": null, "status": "In Service", "id": "2810", "address_fr": "AFSNEEDORP 1\n9051 SINT-DENIJS-WESTREM"}, "geometry": {"type": "Point", "coordinates": [3.667417, 51.030294]}}, {"type": "Feature", "properties": {"ts_week": 825, "ts_sat": null, "status": "In Service", "id": "35005736", "address_fr": "AGORALAAN C\n3590 DIEPENBEEK"}, "geometry": {"type": "Point", "coordinates": [5.3887121, 50.9285373]}}, {"type": "Feature", "properties": {"ts_week": 885, "ts_sat": null, "status": "In Service", "id": "11800848", "address_fr": "AVENUE DE L&#39;AIGLON 40\n1180 UCCLE"}, "geometry": {"type": "Point", "coordinates": [4.3621611, 50.7835395]}}, {"type": "Feature", "properties": {"ts_week": 840, "ts_sat": null, "status": "In Service", "id": "97009438", "address_fr": "AIM\u00c9 DELHAYEPLEIN 22\n9600 RONSE"}, "geometry": {"type": "Point", "coordinates": [3.595606, 50.7499141]}}, {"type": "Feature", "properties": {"ts_week": 1020, "ts_sat": 600, "status": "In Service", "id": "53018424", "address_fr": "AIRESTE 5\n5310 AISCHE-EN-REFAIL"}, "geometry": {"type": "Point", "coordinates": [4.79248, 50.600032]}}, {"type": "Feature", "properties": {"ts_week": 600, "ts_sat": null, "status": "In Service", "id": "69013506", "address_fr": "AISNE 52\n6941 HEYD"}, "geometry": {"type": "Point", "coordinates": [5.5662979, 50.3553731]}}, {"type": "Feature", "properties": {"ts_week": 600, "ts_sat": null, "status": "In Service", "id": "49012429", "address_fr": "AISOMONT 39\n4980 WANNE"}, "geometry": {"type": "Point", "coordinates": [5.903275, 50.364596]}}, {"type": "Feature", "properties": {"ts_week": 600, "ts_sat": null, "status": "In Service", "id": "87007672", "address_fr": "AKKERSTRAAT 14A\n8750 ZWEVEZELE"}, "geometry": {"type": "Point", "coordinates": [3.228348, 51.040536]}}, {"type": "Feature", "properties": {"ts_week": 825, "ts_sat": null, "status": "In Service", "id": "36006005", "address_fr": "AKKERSTRAAT 37\n3680 NEEROETEREN"}, "geometry": {"type": "Point", "coordinates": [5.709581, 51.083438]}}, {"type": "Feature", "properties": {"ts_week": 600, "ts_sat": null, "status": "In Service", "id": "15001933", "address_fr": "AKRENBOS 64\n1547 BEVER"}, "geometry": {"type": "Point", "coordinates": [3.908092, 50.720611]}}, {"type": "Feature", "properties": {"ts_week": 600, "ts_sat": null, "status": "In Service", "id": "15001932", "address_fr": "AKRENBOS 17\n1547 BEVER"}, "geometry": {"type": "Point", "coordinates": [3.898815, 50.712958]}}, {"type": "Feature", "properties": {"ts_week": 600, "ts_sat": null, "status": "In Service", "id": "88007845", "address_fr": "ALBERIC DELEUSTRAAT 15\n8820 TORHOUT"}, "geometry": {"type": "Point", "coordinates": [3.066273, 51.092187]}}, {"type": "Feature", "properties": {"ts_week": 600, "ts_sat": null, "status": "In Service", "id": "3349", "address_fr": "ALBERT BIESMANSLAAN 1\n1560 HOEILAART"}, "geometry": {"type": "Point", "coordinates": [4.4743037, 50.7677372]}}, {"type": "Feature", "properties": {"ts_week": 600, "ts_sat": null, "status": "In Service", "id": "3367", "address_fr": "ALBERT I LAAN 99\n8620 NIEUWPOORT"}, "geometry": {"type": "Point", "coordinates": [2.729567, 51.144793]}}, {"type": "Feature", "properties": {"ts_week": 960, "ts_sat": null, "status": "In Service", "id": "86007459", "address_fr": "ALBERT I LAAN 272\n8620 NIEUWPOORT"}, "geometry": {"type": "Point", "coordinates": [2.710074, 51.145894]}}, {"type": "Feature", "properties": {"ts_week": 990, "ts_sat": null, "status": "In Service", "id": "86007552", "address_fr": "ALBERT I LAAN 78\n8670 OOSTDUINKERKE"}, "geometry": {"type": "Point", "coordinates": [2.672753, 51.132403]}}, {"type": "Feature", "properties": {"ts_week": 600, "ts_sat": null, "status": "In Service", "id": "86007551", "address_fr": "ALBERT I LAAN 139\n8670 OOSTDUINKERKE"}, "geometry": {"type": "Point", "coordinates": [2.682665, 51.134095]}}, {"type": "Feature", "properties": {"ts_week": 630, "ts_sat": null, "status": "In Service", "id": "840", "address_fr": "RUE ALBERT IER 57\n7700 LUINGNE"}, "geometry": {"type": "Point", "coordinates": [3.238327, 50.742434]}}, {"type": "Feature", "properties": {"ts_week": 825, "ts_sat": null, "status": "In Service", "id": "84006933", "address_fr": "ALBERT I-PROMENADE 62A\n8400 OOSTENDE"}, "geometry": {"type": "Point", "coordinates": [2.910516, 51.230596]}}, {"type": "Feature", "properties": {"ts_week": 825, "ts_sat": null, "status": "In Service", "id": "2536", "address_fr": "ALBERT I-PROMENADE 10\n8400 OOSTENDE"}, "geometry": {"type": "Point", "coordinates": [2.921383, 51.234617]}}, {"type": "Feature", "properties": {"ts_week": 840, "ts_sat": null, "status": "In Service", "id": "10700548", "address_fr": "SQUARE ALBERT I 1\n1070 ANDERLECHT"}, "geometry": {"type": "Point", "coordinates": [4.3246303, 50.8394877]}}, {"type": "Feature", "properties": {"ts_week": 600, "ts_sat": null, "status": "In Service", "id": "15002083", "address_fr": "ALBERT ROWIESSTRAAT 2\n1560 HOEILAART"}, "geometry": {"type": "Point", "coordinates": [4.4737855, 50.7628844]}}, {"type": "Feature", "properties": {"ts_week": 840, "ts_sat": null, "status": "In Service", "id": "2987", "address_fr": "ALBERT VAN DYCKSTRAAT 8\n2300 TURNHOUT"}, "geometry": {"type": "Point", "coordinates": [4.937122, 51.314588]}}, {"type": "Feature", "properties": {"ts_week": 1020, "ts_sat": 750, "status": "In Service", "id": "17002252", "address_fr": "ALBERT VANDERKELENSTRAAT 19\n1750 SINT-KWINTENS-LENNIK"}, "geometry": {"type": "Point", "coordinates": [4.154884, 50.80719]}}, {"type": "Feature", "properties": {"ts_week": 870, "ts_sat": null, "status": "In Service", "id": "30002844", "address_fr": "ALBERT WOUTERSSTRAAT 21\n3012 WILSELE"}, "geometry": {"type": "Point", "coordinates": [4.6989276, 50.8925892]}}, {"type": "Feature", "properties": {"ts_week": 1035, "ts_sat": null, "status": "In Service", "id": "39006577", "address_fr": "ALBERTKADE 1\n3980 TESSENDERLO"}, "geometry": {"type": "Point", "coordinates": [5.1717034, 51.0733413]}}, {"type": "Feature", "properties": {"ts_week": 1065, "ts_sat": 705, "status": "In Service", "id": "93009211", "address_fr": "ALBERTLAAN 80\n9400 NINOVE"}, "geometry": {"type": "Point", "coordinates": [4.008436, 50.838905]}}, {"type": "Feature", "properties": {"ts_week": 1050, "ts_sat": 600, "status": "In Service", "id": "11800837", "address_fr": "AVENUE ALBERT 293\n1180 UCCLE"}, "geometry": {"type": "Point", "coordinates": [4.3474796, 50.8139586]}}, {"type": "Feature", "properties": {"ts_week": 855, "ts_sat": null, "status": "In Service", "id": "80006772", "address_fr": "ALBERTPLEIN 23\n8300 KNOKKE"}, "geometry": {"type": "Point", "coordinates": [3.298983, 51.354339]}}, {"type": "Feature", "properties": {"ts_week": 870, "ts_sat": null, "status": "In Service", "id": "32003223", "address_fr": "ALBERTUSPLEIN 1\n3270 SCHERPENHEUVEL"}, "geometry": {"type": "Point", "coordinates": [4.97686, 50.980066]}}, {"type": "Feature", "properties": {"ts_week": 1020, "ts_sat": 615, "status": "In Service", "id": "33018352", "address_fr": "ALBERTVEST 15/1\n3300 TIENEN"}, "geometry": {"type": "Point", "coordinates": [4.932106, 50.813202]}}, {"type": "Feature", "properties": {"ts_week": 840, "ts_sat": null, "status": "In Service", "id": "33003309", "address_fr": "ALBERTVEST 120\n3300 TIENEN"}, "geometry": {"type": "Point", "coordinates": [4.929217, 50.811791]}}, {"type": "Feature", "properties": {"ts_week": 600, "ts_sat": null, "status": "In Service", "id": "47011919", "address_fr": "ALBINUSSTRASSE HINDERHAUSEN 4\n4784 CROMBACH"}, "geometry": {"type": "Point", "coordinates": [6.045876, 50.274658]}}, {"type": "Feature", "properties": {"ts_week": 930, "ts_sat": null, "status": "In Service", "id": "99009806", "address_fr": "ALBRECHT RODENBACHSTRAAT 40\n9900 EEKLO"}, "geometry": {"type": "Point", "coordinates": [3.585196, 51.177355]}}, {"type": "Feature", "properties": {"ts_week": 600, "ts_sat": null, "status": "In Service", "id": "89007957", "address_fr": "ALBRECHT RODENBACHSTRAAT 30\n8908 VLAMERTINGE"}, "geometry": {"type": "Point", "coordinates": [2.827241, 50.851968]}}, {"type": "Feature", "properties": {"ts_week": 885, "ts_sat": null, "status": "In Service", "id": "93009096", "address_fr": "ALBRECHTLAAN 52\n9300 AALST"}, "geometry": {"type": "Point", "coordinates": [4.054608, 50.935388]}}, {"type": "Feature", "properties": {"ts_week": 600, "ts_sat": null, "status": "In Service", "id": "47011931", "address_fr": "ALDRINGEN 51\n4791 THOMMEN"}, "geometry": {"type": "Point", "coordinates": [6.024554, 50.221007]}}, {"type": "Feature", "properties": {"ts_week": 780, "ts_sat": null, "status": "In Service", "id": "25004549", "address_fr": "ALEXANDER FRANCKSTRAAT 266\n2530 BOECHOUT"}, "geometry": {"type": "Point", "coordinates": [4.509952, 51.159479]}}, {"type": "Feature", "properties": {"ts_week": 1020, "ts_sat": 690, "status": "In Service", "id": "25004550", "address_fr": "ALEXANDER FRANCKSTRAAT 8\n2530 BOECHOUT"}, "geometry": {"type": "Point", "coordinates": [4.493597, 51.159216]}}, {"type": "Feature", "properties": {"ts_week": 900, "ts_sat": null, "status": "In Service", "id": "10700552", "address_fr": "AVENUE ALEXANDRE BERTRAND 50\n1190 FOREST"}, "geometry": {"type": "Point", "coordinates": [4.3365214, 50.8184823]}}, {"type": "Feature", "properties": {"ts_week": 600, "ts_sat": null, "status": "In Service", "id": "30018341", "address_fr": "ALFONS ASSELBERGSLAAN 28\n3080 TERVUREN"}, "geometry": {"type": "Point", "coordinates": [4.5020451, 50.8211907]}}, {"type": "Feature", "properties": {"ts_week": 1080, "ts_sat": 885, "status": "In Service", "id": "90008370", "address_fr": "ALFONS BRAECKMANLAAN 222\n9040 SINT-AMANDSBERG"}, "geometry": {"type": "Point", "coordinates": [3.776226, 51.064992]}}, {"type": "Feature", "properties": {"ts_week": 600, "ts_sat": null, "status": "In Service", "id": "80006621", "address_fr": "ALFONS DE BAECKESTRAAT 12\n8200 SINT-MICHIELS"}, "geometry": {"type": "Point", "coordinates": [3.213325, 51.183163]}}, {"type": "Feature", "properties": {"ts_week": 840, "ts_sat": null, "status": "In Service", "id": "18002426", "address_fr": "ALFONS DE COCKPLEIN 29\n1831 DIEGEM"}, "geometry": {"type": "Point", "coordinates": [4.4364725, 50.895487]}}, {"type": "Feature", "properties": {"ts_week": 1140, "ts_sat": 660, "status": "In Service", "id": "17002148", "address_fr": "ALFONS GOSSETLAAN 17\n1702 GROOT-BIJGAARDEN"}, "geometry": {"type": "Point", "coordinates": [4.275495, 50.872507]}}, {"type": "Feature", "properties": {"ts_week": 840, "ts_sat": null, "status": "In Service", "id": "84018174", "address_fr": "ALFONS PIETERSLAAN 85\n8400 OOSTENDE"}, "geometry": {"type": "Point", "coordinates": [2.910622, 51.225157]}}, {"type": "Feature", "properties": {"ts_week": 870, "ts_sat": null, "status": "In Service", "id": "3106", "address_fr": "ALFONS SERVAISLEI 100\n2900 SCHOTEN"}, "geometry": {"type": "Point", "coordinates": [4.5332711, 51.2546662]}}, {"type": "Feature", "properties": {"ts_week": 600, "ts_sat": null, "status": "In Service", "id": "91008639", "address_fr": "ALFONS VAN PUYMBROECKLAAN 98\n9120 MELSELE"}, "geometry": {"type": "Point", "coordinates": [4.280288, 51.227885]}}, {"type": "Feature", "properties": {"ts_week": 870, "ts_sat": null, "status": "In Service", "id": "2204", "address_fr": "ALFONS VANDENBOSCHSTRAAT 1\n1601 RUISBROEK"}, "geometry": {"type": "Point", "coordinates": [4.295537, 50.78571]}}, {"type": "Feature", "properties": {"ts_week": 600, "ts_sat": null, "status": "In Service", "id": "37006324", "address_fr": "ALFONSSTRAAT 62\n3840 BOMMERSHOVEN"}, "geometry": {"type": "Point", "coordinates": [5.3801233, 50.7845004]}}, {"type": "Feature", "properties": {"ts_week": 840, "ts_sat": null, "status": "In Service", "id": "17002244", "address_fr": "ALFRED ALGOETSTRAAT 31\n1750 SINT-KWINTENS-LENNIK"}, "geometry": {"type": "Point", "coordinates": [4.157884, 50.805927]}}, {"type": "Feature", "properties": {"ts_week": 885, "ts_sat": null, "status": "In Service", "id": "97009591", "address_fr": "ALFRED AMELOTSTRAAT 31\n9750 ZINGEM"}, "geometry": {"type": "Point", "coordinates": [3.652522, 50.904531]}}, {"type": "Feature", "properties": {"ts_week": 900, "ts_sat": null, "status": "In Service", "id": "28005029", "address_fr": "ALFRED DE TAEYESTRAAT 1\n2830 BLAASVELD"}, "geometry": {"type": "Point", "coordinates": [4.3812414, 51.0501671]}}, {"type": "Feature", "properties": {"ts_week": 825, "ts_sat": null, "status": "In Service", "id": "12000992", "address_fr": "AVENUE ALFRED MADOUX 4B\n1150 WOLUWE-SAINT-PIERRE"}, "geometry": {"type": "Point", "coordinates": [4.4468062, 50.8278951]}}, {"type": "Feature", "properties": {"ts_week": 675, "ts_sat": null, "status": "In Service", "id": "26004879", "address_fr": "ALFRED NOBELLAAN 22\n2660 HOBOKEN"}, "geometry": {"type": "Point", "coordinates": [4.3625977, 51.177841]}}, {"type": "Feature", "properties": {"ts_week": 600, "ts_sat": null, "status": "In Service", "id": "18002550", "address_fr": "ALFRED VAN CAMPENHOUTLAAN 26\n1860 MEISE"}, "geometry": {"type": "Point", "coordinates": [4.3409423, 50.9584953]}}, {"type": "Feature", "properties": {"ts_week": 840, "ts_sat": null, "status": "In Service", "id": "80006773", "address_fr": "ALFRED VERWEEPLEIN 17\n8300 KNOKKE"}, "geometry": {"type": "Point", "coordinates": [3.288005, 51.343194]}}, {"type": "Feature", "properties": {"ts_week": 870, "ts_sat": null, "status": "In Service", "id": "21005219", "address_fr": "ALICE NAHONLEI 65\n2900 SCHOTEN"}, "geometry": {"type": "Point", "coordinates": [4.5374227, 51.2655047]}}, {"type": "Feature", "properties": {"ts_week": 855, "ts_sat": null, "status": "In Service", "id": "21003913", "address_fr": "ALKSTRAAT 1\n2170 MERKSEM"}, "geometry": {"type": "Point", "coordinates": [4.442478, 51.259183]}}, {"type": "Feature", "properties": {"ts_week": 600, "ts_sat": null, "status": "In Service", "id": "40010441", "address_fr": "ALL\u00c9E AMBIORIX 2\n4053 EMBOURG"}, "geometry": {"type": "Point", "coordinates": [5.6058127, 50.5889599]}}, {"type": "Feature", "properties": {"ts_week": 600, "ts_sat": null, "status": "In Service", "id": "40010482", "address_fr": "ALL\u00c9E CHANTEMERLE 10\n4400 IVOZ-RAMET"}, "geometry": {"type": "Point", "coordinates": [5.430108, 50.58182]}}, {"type": "Feature", "properties": {"ts_week": 600, "ts_sat": null, "status": "In Service", "id": "13001049", "address_fr": "ALL\u00c9E DE LA PEUPLERAIE 4\n1300 WAVRE"}, "geometry": {"type": "Point", "coordinates": [4.638964, 50.7036618]}}, {"type": "Feature", "properties": {"ts_week": 750, "ts_sat": null, "status": "In Service", "id": "14001508", "address_fr": "ALL\u00c9E DE LA RELEV\u00c9E 1\n1400 NIVELLES"}, "geometry": {"type": "Point", "coordinates": [4.331641, 50.586882]}}, {"type": "Feature", "properties": {"ts_week": 600, "ts_sat": null, "status": "In Service", "id": "46011506", "address_fr": "ALL\u00c9E DES ALOUETTES 60\n4600 VIS\u00c9"}, "geometry": {"type": "Point", "coordinates": [5.701381, 50.7392815]}}, {"type": "Feature", "properties": {"ts_week": 690, "ts_sat": null, "status": "In Service", "id": "1079", "address_fr": "ALL\u00c9E DES BOUTONS D&#39;OR 2\n7033 CUESMES"}, "geometry": {"type": "Point", "coordinates": [3.923221, 50.429245]}}, {"type": "Feature", "properties": {"ts_week": 615, "ts_sat": null, "status": "In Service", "id": "36", "address_fr": "ALL\u00c9E DES CERISIERS 8\n5002 SAINT-SERVAIS"}, "geometry": {"type": "Point", "coordinates": [4.833876, 50.471687]}}, {"type": "Feature", "properties": {"ts_week": 750, "ts_sat": null, "status": "In Service", "id": "120", "address_fr": "ALL\u00c9E DES CERISIERS 1\n5150 FLOREFFE"}, "geometry": {"type": "Point", "coordinates": [4.767279, 50.447728]}}, {"type": "Feature", "properties": {"ts_week": 960, "ts_sat": null, "status": "In Service", "id": "56015039", "address_fr": "ALL\u00c9E DES CHARMES 3G\n5600 ROLY"}, "geometry": {"type": "Point", "coordinates": [4.49917, 50.12615]}}, {"type": "Feature", "properties": {"ts_week": 600, "ts_sat": null, "status": "In Service", "id": "43010995", "address_fr": "ALL\u00c9E DES CHARMES 63\n4219 AMBRESIN"}, "geometry": {"type": "Point", "coordinates": [5.04614, 50.624214]}}, {"type": "Feature", "properties": {"ts_week": 660, "ts_sat": null, "status": "In Service", "id": "62015718", "address_fr": "ALL\u00c9E DES FAMILLES 2\n6250 PRESLES"}, "geometry": {"type": "Point", "coordinates": [4.5913628, 50.3854832]}}, {"type": "Feature", "properties": {"ts_week": 840, "ts_sat": null, "status": "In Service", "id": "43011122", "address_fr": "ALL\u00c9E DES HORTENSIAS 15\n4300 WAREMME"}, "geometry": {"type": "Point", "coordinates": [5.262712, 50.700605]}}, {"type": "Feature", "properties": {"ts_week": 600, "ts_sat": null, "status": "In Service", "id": "46011498", "address_fr": "ALL\u00c9E DES MARGUERITES 34\n4600 VIS\u00c9"}, "geometry": {"type": "Point", "coordinates": [5.7066685, 50.7343799]}}, {"type": "Feature", "properties": {"ts_week": 600, "ts_sat": null, "status": "In Service", "id": "69013442", "address_fr": "ALL\u00c9E DES MARRONNIERS 70\n6929 DAVERDISSE"}, "geometry": {"type": "Point", "coordinates": [5.117036, 50.022867]}}, {"type": "Feature", "properties": {"ts_week": 915, "ts_sat": null, "status": "In Service", "id": "2208", "address_fr": "ALLEE DES OISEAUX 35\n7000 MONS"}, "geometry": {"type": "Point", "coordinates": [3.961008, 50.445885]}}, {"type": "Feature", "properties": {"ts_week": 1020, "ts_sat": 600, "status": "In Service", "id": "50018307", "address_fr": "ALL\u00c9E DES ORMES 15\n5001 BELGRADE"}, "geometry": {"type": "Point", "coordinates": [4.817273, 50.473125]}}, {"type": "Feature", "properties": {"ts_week": 765, "ts_sat": null, "status": "In Service", "id": "327", "address_fr": "ALL\u00c9E DES SAUTERELLES 301\n5542 BLAIMONT"}, "geometry": {"type": "Point", "coordinates": [4.840848, 50.207827]}}, {"type": "Feature", "properties": {"ts_week": 600, "ts_sat": null, "status": "In Service", "id": "62015863", "address_fr": "ALL\u00c9E DES SPORTS 12\n6280 LOVERVAL"}, "geometry": {"type": "Point", "coordinates": [4.4742274, 50.3721381]}}, {"type": "Feature", "properties": {"ts_week": 870, "ts_sat": null, "status": "In Service", "id": "41010713", "address_fr": "ALLEE DU BEAU VIVIER 2\n4102 OUGREE"}, "geometry": {"type": "Point", "coordinates": [5.5397719, 50.5814844]}}, {"type": "Feature", "properties": {"ts_week": 600, "ts_sat": null, "status": "In Service", "id": "68013206", "address_fr": "ALL\u00c9E DU CENTENAIRE 1\n6840 HAMIPR\u00c9"}, "geometry": {"type": "Point", "coordinates": [5.457538, 49.837717]}}, {"type": "Feature", "properties": {"ts_week": 600, "ts_sat": null, "status": "In Service", "id": "40018478", "address_fr": "ALL\u00c9E DU DOMAINE 103\n4180 COMBLAIN-FAIRON"}, "geometry": {"type": "Point", "coordinates": [5.5569335, 50.4461608]}}, {"type": "Feature", "properties": {"ts_week": 600, "ts_sat": null, "status": "In Service", "id": "43011137", "address_fr": "ALL\u00c9E DU LONG PR\u00c9 15\n4300 WAREMME"}, "geometry": {"type": "Point", "coordinates": [5.263638, 50.703207]}}, {"type": "Feature", "properties": {"ts_week": 765, "ts_sat": null, "status": "In Service", "id": "14001507", "address_fr": "ALL\u00c9E DU PLOCHE 1\n1400 NIVELLES"}, "geometry": {"type": "Point", "coordinates": [4.318837, 50.590292]}}, {"type": "Feature", "properties": {"ts_week": 930, "ts_sat": null, "status": "In Service", "id": "60015203", "address_fr": "ALL\u00c9E F 2\n6001 MARCINELLE"}, "geometry": {"type": "Point", "coordinates": [4.43764, 50.384348]}}, {"type": "Feature", "properties": {"ts_week": 885, "ts_sat": null, "status": "In Service", "id": "60015201", "address_fr": "ALL\u00c9E G\u00c9N\u00c9RAL DE GAULLE 1\n6032 MONT-SUR-MARCHIENNE"}, "geometry": {"type": "Point", "coordinates": [4.417605, 50.391338]}}, {"type": "Feature", "properties": {"ts_week": 1020, "ts_sat": null, "status": "In Service", "id": "3163", "address_fr": "ALLEE JOHN-FITZGERALD KENNEDY 1\n5650 CHASTR\u00c8S"}, "geometry": {"type": "Point", "coordinates": [4.459684, 50.268948]}}, {"type": "Feature", "properties": {"ts_week": 600, "ts_sat": null, "status": "In Service", "id": "45011249", "address_fr": "ALL\u00c9E SAINT-ETIENNE AU MONT 1\n4500 HUY"}, "geometry": {"type": "Point", "coordinates": [5.227508, 50.527989]}}, {"type": "Feature", "properties": {"ts_week": 1140, "ts_sat": 855, "status": "In Service", "id": "90008325", "address_fr": "ALPHONSE CLAEYS-BOU\u00dcAERTLAAN 2\n9030 MARIAKERKE"}, "geometry": {"type": "Point", "coordinates": [3.67835, 51.075162]}}, {"type": "Feature", "properties": {"ts_week": 870, "ts_sat": null, "status": "In Service", "id": "10800614", "address_fr": "RUE ALPHONSE VANDENPEEREBOOM 108\n1080 MOLENBEEK-SAINT-JEAN"}, "geometry": {"type": "Point", "coordinates": [4.3236633, 50.8512567]}}, {"type": "Feature", "properties": {"ts_week": 1005, "ts_sat": null, "status": "In Service", "id": "15002042", "address_fr": "ALSEMBERGSESTEENWEG 586\n1653 DWORP"}, "geometry": {"type": "Point", "coordinates": [4.300407, 50.729584]}}, {"type": "Feature", "properties": {"ts_week": 600, "ts_sat": null, "status": "In Service", "id": "15001859", "address_fr": "ALSEMBERGSESTEENWEG 247\n1501 BUIZINGEN"}, "geometry": {"type": "Point", "coordinates": [4.267733, 50.745275]}}, {"type": "Feature", "properties": {"ts_week": 690, "ts_sat": null, "status": "In Service", "id": "11800885", "address_fr": "CHAUSS\u00c9E D&#39;ALSEMBERG 856\n1180 UCCLE"}, "geometry": {"type": "Point", "coordinates": [4.3355123, 50.7961911]}}, {"type": "Feature", "properties": {"ts_week": 720, "ts_sat": null, "status": "In Service", "id": "11800884", "address_fr": "CHAUSS\u00c9E D&#39;ALSEMBERG 409-411\n1180 UCCLE"}, "geometry": {"type": "Point", "coordinates": [4.3388291, 50.8138393]}}, {"type": "Feature", "properties": {"ts_week": 810, "ts_sat": null, "status": "In Service", "id": "15002043", "address_fr": "ALSEMBERGSESTEENWEG 612\n1653 DWORP"}, "geometry": {"type": "Point", "coordinates": [4.298591, 50.730472]}}, {"type": "Feature", "properties": {"ts_week": 825, "ts_sat": null, "status": "In Service", "id": "15002000", "address_fr": "ALSEMBERGSESTEENWEG 104\n1630 LINKEBEEK"}, "geometry": {"type": "Point", "coordinates": [4.327262, 50.771515]}}, {"type": "Feature", "properties": {"ts_week": 825, "ts_sat": null, "status": "In Service", "id": "11800882", "address_fr": "CHAUSS\u00c9E D&#39;ALSEMBERG 1247\n1180 UCCLE"}, "geometry": {"type": "Point", "coordinates": [4.3284072, 50.78494]}}, {"type": "Feature", "properties": {"ts_week": 825, "ts_sat": null, "status": "In Service", "id": "15002001", "address_fr": "ALSEMBERGSESTEENWEG 44\n1630 LINKEBEEK"}, "geometry": {"type": "Point", "coordinates": [4.325654, 50.777117]}}, {"type": "Feature", "properties": {"ts_week": 600, "ts_sat": null, "status": "In Service", "id": "15002045", "address_fr": "ALSEMBERGSTEENWEG 1046\n1652 ALSEMBERG"}, "geometry": {"type": "Point", "coordinates": [4.333362, 50.752063]}}, {"type": "Feature", "properties": {"ts_week": 600, "ts_sat": null, "status": "In Service", "id": "47011923", "address_fr": "AM HERRENBR\u00dcHL 1\n4780 SANKT-VITH"}, "geometry": {"type": "Point", "coordinates": [6.119944, 50.275651]}}, {"type": "Feature", "properties": {"ts_week": 600, "ts_sat": null, "status": "In Service", "id": "47011878", "address_fr": "AM KIRCHENHOF 5\n4760 B\u00dcLLINGEN"}, "geometry": {"type": "Point", "coordinates": [6.303065, 50.408286]}}, {"type": "Feature", "properties": {"ts_week": 600, "ts_sat": null, "status": "In Service", "id": "47011933", "address_fr": "AM SCHLOSSBERG 74\n4790 REULAND"}, "geometry": {"type": "Point", "coordinates": [6.134141, 50.139984]}}, {"type": "Feature", "properties": {"ts_week": 690, "ts_sat": null, "status": "In Service", "id": "1528", "address_fr": "AMANDUS - DE - VOSSTRAAT 1\n2440 GEEL"}, "geometry": {"type": "Point", "coordinates": [5.0012047, 51.1633377]}}, {"type": "Feature", "properties": {"ts_week": 1005, "ts_sat": null, "status": "In Service", "id": "30002770", "address_fr": "AMBACHTENLAAN 28\n3000 LEUVEN"}, "geometry": {"type": "Point", "coordinates": [4.7146307, 50.8503122]}}, {"type": "Feature", "properties": {"ts_week": 1005, "ts_sat": null, "status": "In Service", "id": "30002771", "address_fr": "AMBACHTENLAAN 32\n3000 LEUVEN"}, "geometry": {"type": "Point", "coordinates": [4.7161143, 50.8503897]}}, {"type": "Feature", "properties": {"ts_week": 1005, "ts_sat": null, "status": "In Service", "id": "30002769", "address_fr": "AMBACHTENLAAN 26\n3000 LEUVEN"}, "geometry": {"type": "Point", "coordinates": [4.7167179, 50.85032]}}, {"type": "Feature", "properties": {"ts_week": 1005, "ts_sat": null, "status": "In Service", "id": "30002768", "address_fr": "AMBACHTENLAAN 2\n3000 LEUVEN"}, "geometry": {"type": "Point", "coordinates": [4.7196037, 50.848805]}}, {"type": "Feature", "properties": {"ts_week": 1005, "ts_sat": null, "status": "In Service", "id": "32003202", "address_fr": "AMBACHTENSTRAAT 2\n3210 LUBBEEK"}, "geometry": {"type": "Point", "coordinates": [4.7959868, 50.8928779]}}, {"type": "Feature", "properties": {"ts_week": 1005, "ts_sat": null, "status": "In Service", "id": "3060", "address_fr": "AMBACHTENSTRAAT 2\n3210 LUBBEEK"}, "geometry": {"type": "Point", "coordinates": [4.796091, 50.89209]}}, {"type": "Feature", "properties": {"ts_week": 675, "ts_sat": null, "status": "In Service", "id": "23004321", "address_fr": "AMBACHTSSTRAAT 41\n2390 OOSTMALLE"}, "geometry": {"type": "Point", "coordinates": [4.707965, 51.285112]}}, {"type": "Feature", "properties": {"ts_week": 840, "ts_sat": null, "status": "In Service", "id": "80006881", "address_fr": "AMBACHTSTRAAT 3-3A\n8370 UITKERKE"}, "geometry": {"type": "Point", "coordinates": [3.152342, 51.296426]}}, {"type": "Feature", "properties": {"ts_week": 915, "ts_sat": null, "status": "In Service", "id": "97018185", "address_fr": "AMBACHTSTRAAT 1\n9700 EINE"}, "geometry": {"type": "Point", "coordinates": [3.6212629, 50.8683423]}}, {"type": "Feature", "properties": {"ts_week": 885, "ts_sat": null, "status": "In Service", "id": "3365", "address_fr": "AMBACHTSWEG 2\n9820 MERELBEKE"}, "geometry": {"type": "Point", "coordinates": [3.76499, 50.993849]}}, {"type": "Feature", "properties": {"ts_week": 870, "ts_sat": null, "status": "In Service", "id": "10000147", "address_fr": "SQUARE AMBIORIX 30\n1000 BRUXELLES"}, "geometry": {"type": "Point", "coordinates": [4.3843376, 50.8462898]}}, {"type": "Feature", "properties": {"ts_week": 930, "ts_sat": null, "status": "In Service", "id": "18002695", "address_fr": "AMBROOSSTEENWEG 1\n1981 HOFSTADE"}, "geometry": {"type": "Point", "coordinates": [4.492975, 50.9914304]}}, {"type": "Feature", "properties": {"ts_week": 600, "ts_sat": null, "status": "In Service", "id": "18002694", "address_fr": "AMBROOSSTEENWEG 229\n1981 HOFSTADE"}, "geometry": {"type": "Point", "coordinates": [4.514313, 50.995452]}}, {"type": "Feature", "properties": {"ts_week": 1005, "ts_sat": null, "status": "In Service", "id": "3383", "address_fr": "AMBTMANSTRAAT 2A\n2000 ANTWERPEN"}, "geometry": {"type": "Point", "coordinates": [4.405993, 51.222879]}}, {"type": "Feature", "properties": {"ts_week": 600, "ts_sat": null, "status": "In Service", "id": "18002650", "address_fr": "AM\u00c9D\u00c9 BRACKESTRAAT 60\n1950 KRAAINEM"}, "geometry": {"type": "Point", "coordinates": [4.4537754, 50.86159]}}, {"type": "Feature", "properties": {"ts_week": 855, "ts_sat": null, "status": "In Service", "id": "10000217", "address_fr": "RUE AM\u00c9D\u00c9E LYNEN 8\n1210 SAINT-JOSSE-TEN-NOODE"}, "geometry": {"type": "Point", "coordinates": [4.373154, 50.850391]}}, {"type": "Feature", "properties": {"ts_week": 1020, "ts_sat": 660, "status": "In Service", "id": "47011897", "address_fr": "AMEL WITTENHOF 10\n4770 AMEL"}, "geometry": {"type": "Point", "coordinates": [6.167949, 50.35474]}}, {"type": "Feature", "properties": {"ts_week": 1005, "ts_sat": null, "status": "In Service", "id": "22004061", "address_fr": "AMELBERGASTRAAT 28\n2240 ZANDHOVEN"}, "geometry": {"type": "Point", "coordinates": [4.66238, 51.216226]}}, {"type": "Feature", "properties": {"ts_week": 600, "ts_sat": null, "status": "In Service", "id": "3359", "address_fr": "AMELSCHEID 14\n4782 SCH\u00d6NBERG"}, "geometry": {"type": "Point", "coordinates": [6.256862, 50.276759]}}, {"type": "Feature", "properties": {"ts_week": 825, "ts_sat": null, "status": "In Service", "id": "10500412", "address_fr": "RUE AM\u00c9RICAINE 136\n1050 IXELLES"}, "geometry": {"type": "Point", "coordinates": [4.3614678, 50.8225435]}}, {"type": "Feature", "properties": {"ts_week": 825, "ts_sat": null, "status": "In Service", "id": "10500413", "address_fr": "RUE AM\u00c9RICAINE 49\n1050 IXELLES"}, "geometry": {"type": "Point", "coordinates": [4.3569648, 50.8238036]}}, {"type": "Feature", "properties": {"ts_week": 660, "ts_sat": null, "status": "In Service", "id": "24004401", "address_fr": "AMERIKALAAN 27\n2440 GEEL"}, "geometry": {"type": "Point", "coordinates": [5.035225, 51.192233]}}, {"type": "Feature", "properties": {"ts_week": 810, "ts_sat": null, "status": "In Service", "id": "20003568", "address_fr": "AMERIKALEI 196\n2000 ANTWERPEN"}, "geometry": {"type": "Point", "coordinates": [4.390496, 51.205516]}}, {"type": "Feature", "properties": {"ts_week": 600, "ts_sat": null, "status": "In Service", "id": "88007866", "address_fr": "AMERSVELDESTRAAT 51\n8830 HOOGLEDE"}, "geometry": {"type": "Point", "coordinates": [3.034843, 51.001029]}}, {"type": "Feature", "properties": {"ts_week": 600, "ts_sat": null, "status": "In Service", "id": "2254", "address_fr": "AMERSVELDESTRAAT 87\n8610 KORTEMARK"}, "geometry": {"type": "Point", "coordinates": [3.033764, 51.018376]}}, {"type": "Feature", "properties": {"ts_week": 600, "ts_sat": null, "status": "In Service", "id": "41010811", "address_fr": "AMOSTRENNES 39\n4130 ESNEUX"}, "geometry": {"type": "Point", "coordinates": [5.542391, 50.5280153]}}, {"type": "Feature", "properties": {"ts_week": 840, "ts_sat": null, "status": "In Service", "id": "23004215", "address_fr": "AMSTERDAMSTRAAT 40-42\n2321 MEER"}, "geometry": {"type": "Point", "coordinates": [4.731747, 51.482476]}}, {"type": "Feature", "properties": {"ts_week": 600, "ts_sat": null, "status": "In Service", "id": "13001355", "address_fr": "ANCIENNE DR\u00c8VE DES TILLEULS 1\n1370 JODOIGNE"}, "geometry": {"type": "Point", "coordinates": [4.8617362, 50.7244796]}}, {"type": "Feature", "properties": {"ts_week": 870, "ts_sat": null, "status": "In Service", "id": "10000078", "address_fr": "RUE D&#39;ANDERLECHT 90\n1000 BRUXELLES"}, "geometry": {"type": "Point", "coordinates": [4.342688, 50.845953]}}, {"type": "Feature", "properties": {"ts_week": 600, "ts_sat": null, "status": "In Service", "id": "47011869", "address_fr": "ANDLERM\u00dcHLE 1\n4760 MANDERFELD"}, "geometry": {"type": "Point", "coordinates": [6.286763, 50.311036]}}, {"type": "Feature", "properties": {"ts_week": 600, "ts_sat": null, "status": "In Service", "id": "36005759", "address_fr": "ANDR\u00c9 DUMONTLAAN 213\n3600 GENK"}, "geometry": {"type": "Point", "coordinates": [5.539528, 50.986316]}}, {"type": "Feature", "properties": {"ts_week": 600, "ts_sat": null, "status": "In Service", "id": "1373", "address_fr": "ANDREAS VERBRIGGHESTRAAT 1\n8972 KROMBEKE"}, "geometry": {"type": "Point", "coordinates": [2.688819, 50.91545]}}, {"type": "Feature", "properties": {"ts_week": 825, "ts_sat": null, "status": "In Service", "id": "21005366", "address_fr": "ANDR\u00c9LAAN 2\n2960 SINT-JOB-IN-&#39;T-GOOR"}, "geometry": {"type": "Point", "coordinates": [4.585593, 51.316414]}}, {"type": "Feature", "properties": {"ts_week": 600, "ts_sat": null, "status": "In Service", "id": "49012458", "address_fr": "ANDRIMONT 35\n4987 LA GLEIZE"}, "geometry": {"type": "Point", "coordinates": [5.890813, 50.438964]}}, {"type": "Feature", "properties": {"ts_week": 600, "ts_sat": null, "status": "In Service", "id": "33003310", "address_fr": "ANJELIERENLAAN 26\n3300 TIENEN"}, "geometry": {"type": "Point", "coordinates": [4.951515, 50.816604]}}, {"type": "Feature", "properties": {"ts_week": 1005, "ts_sat": null, "status": "In Service", "id": "20003569", "address_fr": "ANKERRUI 16\n2000 ANTWERPEN"}, "geometry": {"type": "Point", "coordinates": [4.410905, 51.226962]}}, {"type": "Feature", "properties": {"ts_week": 870, "ts_sat": null, "status": "In Service", "id": "10000070", "address_fr": "RUE ANNEESSENS 2\n1000 BRUXELLES"}, "geometry": {"type": "Point", "coordinates": [4.342156, 50.84769]}}, {"type": "Feature", "properties": {"ts_week": 600, "ts_sat": null, "status": "In Service", "id": "97009536", "address_fr": "ANNOVENSTRAAT 32\n9688 SCHORISSE"}, "geometry": {"type": "Point", "coordinates": [3.6763849, 50.7728891]}}, {"type": "Feature", "properties": {"ts_week": 1020, "ts_sat": 600, "status": "In Service", "id": "20003570", "address_fr": "ANSELMOSTRAAT 29\n2018 ANTWERPEN"}, "geometry": {"type": "Point", "coordinates": [4.403529, 51.207556]}}, {"type": "Feature", "properties": {"ts_week": 1140, "ts_sat": 600, "status": "In Service", "id": "10000033", "address_fr": "BOULEVARD ANSPACH 1\n1000 BRUXELLES"}, "geometry": {"type": "Point", "coordinates": [4.352064564, 50.85090139]}}, {"type": "Feature", "properties": {"ts_week": 1140, "ts_sat": 600, "status": "In Service", "id": "10000034", "address_fr": "BOULEVARD ANSPACH 1\n1000 BRUXELLES"}, "geometry": {"type": "Point", "coordinates": [4.35204, 50.85091]}}, {"type": "Feature", "properties": {"ts_week": 1080, "ts_sat": 780, "status": "In Service", "id": "3913", "address_fr": "ANTOINE COPPENSLAAN  2\n2300 TURNHOUT"}, "geometry": {"type": "Point", "coordinates": [4.934196, 51.327004]}}, {"type": "Feature", "properties": {"ts_week": 1020, "ts_sat": 600, "status": "In Service", "id": "11600823", "address_fr": "PLACE ANTOINE GILSON 1\n1170 WATERMAEL-BOITSFORT"}, "geometry": {"type": "Point", "coordinates": [4.4169345, 50.798177]}}, {"type": "Feature", "properties": {"ts_week": 900, "ts_sat": null, "status": "In Service", "id": "12000962", "address_fr": "AVENUE ANTOINE JOSEPH SLEGERS 204\n1200 WOLUWE-SAINT-LAMBERT"}, "geometry": {"type": "Point", "coordinates": [4.4302944, 50.8469591]}}, {"type": "Feature", "properties": {"ts_week": 840, "ts_sat": null, "status": "In Service", "id": "20003743", "address_fr": "ANTOON MARSTBOOMSTRAAT 1\n2050 ANTWERPEN"}, "geometry": {"type": "Point", "coordinates": [4.375753, 51.219386]}}, {"type": "Feature", "properties": {"ts_week": 1020, "ts_sat": null, "status": "In Service", "id": "10018155", "address_fr": "AVENUE ANTOON VAN OSS 1\n1120 NEDER-OVER-HEEMBEEK"}, "geometry": {"type": "Point", "coordinates": [4.403261, 50.905954]}}, {"type": "Feature", "properties": {"ts_week": 600, "ts_sat": null, "status": "In Service", "id": "91008689", "address_fr": "ANTWERPSE STEENWEG 48\n9140 TIELRODE"}, "geometry": {"type": "Point", "coordinates": [4.178615, 51.113239]}}, {"type": "Feature", "properties": {"ts_week": 795, "ts_sat": null, "status": "In Service", "id": "21005317", "address_fr": "ANTWERPSE STEENWEG 152\n2940 HOEVENEN"}, "geometry": {"type": "Point", "coordinates": [4.41023, 51.302392]}}, {"type": "Feature", "properties": {"ts_week": 830, "ts_sat": null, "status": "In Service", "id": "10000039", "address_fr": "CHAUSS\u00c9E D&#39;ANVERS 483\n1000 BRUXELLES"}, "geometry": {"type": "Point", "coordinates": [4.3607733, 50.8712709]}}, {"type": "Feature", "properties": {"ts_week": 660, "ts_sat": null, "status": "In Service", "id": "23004325", "address_fr": "ANTWERPSESTEENWEG 487\n2390 WESTMALLE"}, "geometry": {"type": "Point", "coordinates": [4.660413, 51.280901]}}, {"type": "Feature", "properties": {"ts_week": 825, "ts_sat": null, "status": "In Service", "id": "20003789", "address_fr": "ANTWERPSESTEENWEG 244\n2070 BURCHT"}, "geometry": {"type": "Point", "coordinates": [4.347847, 51.20862]}}, {"type": "Feature", "properties": {"ts_week": 900, "ts_sat": null, "status": "In Service", "id": "90008372", "address_fr": "ANTWERPSESTEENWEG 249\n9040 SINT-AMANDSBERG"}, "geometry": {"type": "Point", "coordinates": [3.749235, 51.061841]}}, {"type": "Feature", "properties": {"ts_week": 915, "ts_sat": null, "status": "In Service", "id": "25004588", "address_fr": "ANTWERPSESTEENWEG 62\n2550 KONTICH"}, "geometry": {"type": "Point", "coordinates": [4.4504721, 51.137607]}}, {"type": "Feature", "properties": {"ts_week": 870, "ts_sat": null, "status": "In Service", "id": "25004514", "address_fr": "ANTWERPSESTEENWEG 365\n2500 LIER"}, "geometry": {"type": "Point", "coordinates": [4.548605, 51.142532]}}, {"type": "Feature", "properties": {"ts_week": 900, "ts_sat": null, "status": "In Service", "id": "26004880", "address_fr": "ANTWERPSESTEENWEG 159\n2660 HOBOKEN"}, "geometry": {"type": "Point", "coordinates": [4.3594255, 51.1786205]}}, {"type": "Feature", "properties": {"ts_week": 870, "ts_sat": null, "status": "In Service", "id": "21005333", "address_fr": "ANTWERPSESTEENWEG 212\n2950 KAPELLEN"}, "geometry": {"type": "Point", "coordinates": [4.434365, 51.305541]}}, {"type": "Feature", "properties": {"ts_week": 1005, "ts_sat": null, "status": "In Service", "id": "23004264", "address_fr": "ANTWERPSESTEENWEG 157\n2350 VOSSELAAR"}, "geometry": {"type": "Point", "coordinates": [4.886176, 51.314439]}}, {"type": "Feature", "properties": {"ts_week": 915, "ts_sat": null, "status": "In Service", "id": "90008373", "address_fr": "ANTWERPSESTEENWEG 528\n9040 SINT-AMANDSBERG"}, "geometry": {"type": "Point", "coordinates": [3.752817, 51.064691]}}, {"type": "Feature", "properties": {"ts_week": 915, "ts_sat": null, "status": "In Service", "id": "90008371", "address_fr": "ANTWERPSESTEENWEG 1062\n9040 SINT-AMANDSBERG"}, "geometry": {"type": "Point", "coordinates": [3.781888, 51.077225]}}, {"type": "Feature", "properties": {"ts_week": 845, "ts_sat": null, "status": "In Service", "id": "10000040", "address_fr": "CHAUSS\u00c9E D&#39;ANVERS 59\n1000 BRUXELLES"}, "geometry": {"type": "Point", "coordinates": [4.3569079, 50.8630286]}}, {"type": "Feature", "properties": {"ts_week": 915, "ts_sat": null, "status": "In Service", "id": "90008374", "address_fr": "ANTWERPSESTEENWEG 772\n9040 SINT-AMANDSBERG"}, "geometry": {"type": "Point", "coordinates": [3.76128, 51.067788]}}, {"type": "Feature", "properties": {"ts_week": 855, "ts_sat": null, "status": "In Service", "id": "21005334", "address_fr": "ANTWERPSESTEENWEG 271\n2950 KAPELLEN"}, "geometry": {"type": "Point", "coordinates": [4.437447, 51.301575]}}, {"type": "Feature", "properties": {"ts_week": 1020, "ts_sat": 660, "status": "In Service", "id": "1956", "address_fr": "ANTWERPSESTEENWEG 20\n2950 KAPELLEN"}, "geometry": {"type": "Point", "coordinates": [4.428675, 51.313376]}}, {"type": "Feature", "properties": {"ts_week": 990, "ts_sat": 750, "status": "In Service", "id": "3220", "address_fr": "ANTWERPSESTEENWEG 123\n2800 MECHELEN"}, "geometry": {"type": "Point", "coordinates": [4.470314, 51.042773]}}, {"type": "Feature", "properties": {"ts_week": 1020, "ts_sat": 615, "status": "In Service", "id": "23004323", "address_fr": "ANTWERPSESTEENWEG 25\n2390 OOSTMALLE"}, "geometry": {"type": "Point", "coordinates": [4.731968, 51.300996]}}, {"type": "Feature", "properties": {"ts_week": 1005, "ts_sat": 615, "status": "In Service", "id": "2476", "address_fr": "ANTWERPSESTEENWEG 246\n2390 WESTMALLE"}, "geometry": {"type": "Point", "coordinates": [4.693832, 51.296847]}}, {"type": "Feature", "properties": {"ts_week": 1020, "ts_sat": 690, "status": "In Service", "id": "25004515", "address_fr": "ANTWERPSESTEENWEG 380\n2500 LIER"}, "geometry": {"type": "Point", "coordinates": [4.535798, 51.148484]}}, {"type": "Feature", "properties": {"ts_week": 1020, "ts_sat": 720, "status": "In Service", "id": "28005095", "address_fr": "ANTWERPSESTRAAT 18-22\n2850 BOOM"}, "geometry": {"type": "Point", "coordinates": [4.3660073, 51.0867576]}}, {"type": "Feature", "properties": {"ts_week": 900, "ts_sat": null, "status": "In Service", "id": "28005083", "address_fr": "ANTWERPSESTRAAT 245\n2845 NIEL"}, "geometry": {"type": "Point", "coordinates": [4.3308547, 51.1135183]}}, {"type": "Feature", "properties": {"ts_week": 1005, "ts_sat": null, "status": "In Service", "id": "26004826", "address_fr": "ANTWERPSESTRAAT 94-96\n2640 MORTSEL"}, "geometry": {"type": "Point", "coordinates": [4.4446951, 51.1732933]}}, {"type": "Feature", "properties": {"ts_week": 900, "ts_sat": null, "status": "In Service", "id": "28005084", "address_fr": "ANTWERPSESTRAAT 50\n2845 NIEL"}, "geometry": {"type": "Point", "coordinates": [4.3304018, 51.1089647]}}, {"type": "Feature", "properties": {"ts_week": 915, "ts_sat": null, "status": "In Service", "id": "24004402", "address_fr": "ANTWERPSEWEG 119\n2440 GEEL"}, "geometry": {"type": "Point", "coordinates": [4.9452276, 51.1416667]}}, {"type": "Feature", "properties": {"ts_week": 600, "ts_sat": null, "status": "In Service", "id": "99009959", "address_fr": "APPELBOOM 10\n9991 ADEGEM"}, "geometry": {"type": "Point", "coordinates": [3.5064167, 51.1751914]}}, {"type": "Feature", "properties": {"ts_week": 690, "ts_sat": null, "status": "In Service", "id": "28005170", "address_fr": "APPELDIJKSTRAAT 3\n2880 WEERT"}, "geometry": {"type": "Point", "coordinates": [4.1926249, 51.1006006]}}, {"type": "Feature", "properties": {"ts_week": 600, "ts_sat": null, "status": "In Service", "id": "91008697", "address_fr": "APPELSVOORDE 2\n9140 TIELRODE"}, "geometry": {"type": "Point", "coordinates": [4.162418, 51.114644]}}, {"type": "Feature", "properties": {"ts_week": 600, "ts_sat": null, "status": "In Service", "id": "93009212", "address_fr": "APPELTERRE-DORP 20\n9400 APPELTERRE-EICHEM"}, "geometry": {"type": "Point", "coordinates": [3.966302, 50.818747]}}, {"type": "Feature", "properties": {"ts_week": 600, "ts_sat": null, "status": "In Service", "id": "99009893", "address_fr": "APPENSVOORDESTRAAT 106\n9920 LOVENDEGEM"}, "geometry": {"type": "Point", "coordinates": [3.6396908, 51.0984836]}}, {"type": "Feature", "properties": {"ts_week": 600, "ts_sat": null, "status": "In Service", "id": "11600824", "address_fr": "PLACE DES ARCADES 6\n1170 WATERMAEL-BOITSFORT"}, "geometry": {"type": "Point", "coordinates": [4.3984367, 50.8097771]}}, {"type": "Feature", "properties": {"ts_week": 795, "ts_sat": null, "status": "In Service", "id": "88007775", "address_fr": "ARDOOISESTEENWEG 66\n8800 ROESELARE"}, "geometry": {"type": "Point", "coordinates": [3.133434, 50.949873]}}, {"type": "Feature", "properties": {"ts_week": 600, "ts_sat": null, "status": "In Service", "id": "99009906", "address_fr": "ARISDONK 97\n9950 WAARSCHOOT"}, "geometry": {"type": "Point", "coordinates": [3.624528, 51.145823]}}, {"type": "Feature", "properties": {"ts_week": 990, "ts_sat": null, "status": "In Service", "id": "15001860", "address_fr": "ARKENVEST 2\n1500 HALLE"}, "geometry": {"type": "Point", "coordinates": [4.236675, 50.733072]}}, {"type": "Feature", "properties": {"ts_week": 600, "ts_sat": null, "status": "In Service", "id": "30002916", "address_fr": "ARMAND VERHEYDENSTRAAT 10\n3053 HAASRODE"}, "geometry": {"type": "Point", "coordinates": [4.7289676, 50.831003]}}, {"type": "Feature", "properties": {"ts_week": 1050, "ts_sat": 765, "status": "In Service", "id": "75017298", "address_fr": "RUE D&#39;ARMENTI\u00c8RES 262\n7783 BIZET"}, "geometry": {"type": "Point", "coordinates": [2.883, 50.708448]}}, {"type": "Feature", "properties": {"ts_week": 870, "ts_sat": null, "status": "In Service", "id": "10500414", "address_fr": "AVENUE ARNAUD FRAITEUR 30\n1050 IXELLES"}, "geometry": {"type": "Point", "coordinates": [4.3948595, 50.8176476]}}, {"type": "Feature", "properties": {"ts_week": 600, "ts_sat": null, "status": "In Service", "id": "36005941", "address_fr": "ARNOLD SAUWENLAAN 48\n3650 STOKKEM"}, "geometry": {"type": "Point", "coordinates": [5.737421, 51.019144]}}, {"type": "Feature", "properties": {"ts_week": 600, "ts_sat": null, "status": "In Service", "id": "97009557", "address_fr": "ARSENAALWEG 6\n9700 EINE"}, "geometry": {"type": "Point", "coordinates": [3.6116384, 50.8635777]}}, {"type": "Feature", "properties": {"ts_week": 615, "ts_sat": null, "status": "In Service", "id": "30002996", "address_fr": "ARTH. MICHIELSPLEIN 3\n3090 OVERIJSE"}, "geometry": {"type": "Point", "coordinates": [4.5336216, 50.7681029]}}, {"type": "Feature", "properties": {"ts_week": 1020, "ts_sat": null, "status": "In Service", "id": "18002616", "address_fr": "ARTHUR DE CONINCKSTRAAT 2-4\n3070 KORTENBERG"}, "geometry": {"type": "Point", "coordinates": [4.521914, 50.884977]}}, {"type": "Feature", "properties": {"ts_week": 840, "ts_sat": null, "status": "In Service", "id": "21003859", "address_fr": "ARTHUR MATTHYSLAAN 65\n2140 BORGERHOUT"}, "geometry": {"type": "Point", "coordinates": [4.452305, 51.203762]}}, {"type": "Feature", "properties": {"ts_week": 810, "ts_sat": null, "status": "In Service", "id": "15018165", "address_fr": "ARTHUR PUESSTRAAT 42\n1502 LEMBEEK"}, "geometry": {"type": "Point", "coordinates": [4.217919, 50.715545]}}, {"type": "Feature", "properties": {"ts_week": 870, "ts_sat": null, "status": "In Service", "id": "15001960", "address_fr": "ARTHUR QUINTUSSTRAAT 45\n1600 SINT-PIETERS-LEEUW"}, "geometry": {"type": "Point", "coordinates": [4.276983, 50.791554]}}, {"type": "Feature", "properties": {"ts_week": 855, "ts_sat": null, "status": "In Service", "id": "10000174", "address_fr": "PLACE ARTHUR VAN GEHUCHTEN 2/4\n1020 LAEKEN"}, "geometry": {"type": "Point", "coordinates": [4.3324928, 50.8859235]}}, {"type": "Feature", "properties": {"ts_week": 870, "ts_sat": null, "status": "In Service", "id": "85007357", "address_fr": "ARTOISSTRAAT 73\n8560 WEVELGEM"}, "geometry": {"type": "Point", "coordinates": [3.178268, 50.803601]}}, {"type": "Feature", "properties": {"ts_week": 600, "ts_sat": null, "status": "In Service", "id": "36005761", "address_fr": "ASPERGERIJSTRAAT 2\n3600 GENK"}, "geometry": {"type": "Point", "coordinates": [5.419948, 50.952931]}}, {"type": "Feature", "properties": {"ts_week": 750, "ts_sat": null, "status": "In Service", "id": "28005139", "address_fr": "ASPOT 33\n2870 PUURS"}, "geometry": {"type": "Point", "coordinates": [4.3034988, 51.0620546]}}, {"type": "Feature", "properties": {"ts_week": 600, "ts_sat": null, "status": "In Service", "id": "99009850", "address_fr": "ASSCHOUT 16\n9940 EVERGEM"}, "geometry": {"type": "Point", "coordinates": [3.6855708, 51.1176611]}}, {"type": "Feature", "properties": {"ts_week": 600, "ts_sat": null, "status": "In Service", "id": "90008481", "address_fr": "ASSENEDESTEENWEG 128\n9060 ZELZATE"}, "geometry": {"type": "Point", "coordinates": [3.7868057, 51.2014437]}}, {"type": "Feature", "properties": {"ts_week": 1065, "ts_sat": null, "status": "In Service", "id": "90008482", "address_fr": "ASSENEDESTEENWEG 96\n9060 ZELZATE"}, "geometry": {"type": "Point", "coordinates": [3.7915025, 51.1988965]}}, {"type": "Feature", "properties": {"ts_week": 600, "ts_sat": null, "status": "In Service", "id": "66012614", "address_fr": "ASSENOIS 12\n6640 HOMPR\u00c9"}, "geometry": {"type": "Point", "coordinates": [5.678796, 49.966826]}}, {"type": "Feature", "properties": {"ts_week": 1020, "ts_sat": 750, "status": "In Service", "id": "17002203", "address_fr": "ASSESTEENWEG 115\n1740 TERNAT"}, "geometry": {"type": "Point", "coordinates": [4.164462, 50.87728]}}, {"type": "Feature", "properties": {"ts_week": 900, "ts_sat": null, "status": "In Service", "id": "99009894", "address_fr": "ASTERSTRAAT 12\n9920 LOVENDEGEM"}, "geometry": {"type": "Point", "coordinates": [3.634724, 51.106972]}}, {"type": "Feature", "properties": {"ts_week": 855, "ts_sat": null, "status": "In Service", "id": "86007479", "address_fr": "ASTRIDLAAN 2\n8630 VEURNE"}, "geometry": {"type": "Point", "coordinates": [2.659006, 51.074728]}}, {"type": "Feature", "properties": {"ts_week": 600, "ts_sat": null, "status": "In Service", "id": "18002676", "address_fr": "ASTRIDLAAN 57\n1970 WEZEMBEEK-OPPEM"}, "geometry": {"type": "Point", "coordinates": [4.4983192, 50.836466]}}, {"type": "Feature", "properties": {"ts_week": 600, "ts_sat": null, "status": "In Service", "id": "80006827", "address_fr": "ASTRIDLAAN 171\n8310 ASSEBROEK"}, "geometry": {"type": "Point", "coordinates": [3.257104, 51.195099]}}, {"type": "Feature", "properties": {"ts_week": 600, "ts_sat": null, "status": "In Service", "id": "80006828", "address_fr": "ASTRIDLAAN 422\n8310 SINT-KRUIS"}, "geometry": {"type": "Point", "coordinates": [3.27157, 51.192354]}}, {"type": "Feature", "properties": {"ts_week": 600, "ts_sat": null, "status": "In Service", "id": "80006775", "address_fr": "ASTRIDPLEIN 2\n8301 HEIST-AAN-ZEE"}, "geometry": {"type": "Point", "coordinates": [3.264089, 51.34043]}}, {"type": "Feature", "properties": {"ts_week": 1020, "ts_sat": null, "status": "In Service", "id": "22003966", "address_fr": "ATEALAAN 34\n2200 HERENTALS"}, "geometry": {"type": "Point", "coordinates": [4.788186, 51.161173]}}, {"type": "Feature", "properties": {"ts_week": 885, "ts_sat": null, "status": "In Service", "id": "12000998", "address_fr": "AVENUE DE L&#39;ATLANTIQUE 38\n1150 WOLUWE-SAINT-PIERRE"}, "geometry": {"type": "Point", "coordinates": [4.4187252, 50.831281]}}, {"type": "Feature", "properties": {"ts_week": 690, "ts_sat": null, "status": "In Service", "id": "26004781", "address_fr": "ATLETIEKSTRAAT 44\n2620 HEMIKSEM"}, "geometry": {"type": "Point", "coordinates": [4.341315, 51.134669]}}, {"type": "Feature", "properties": {"ts_week": 705, "ts_sat": null, "status": "In Service", "id": "26004739", "address_fr": "ATOMIUMLAAN 500\n2610 WILRIJK"}, "geometry": {"type": "Point", "coordinates": [4.3871599, 51.1518318]}}, {"type": "Feature", "properties": {"ts_week": 1140, "ts_sat": 600, "status": "In Service", "id": "10000198", "address_fr": "AVENUE DE L&#39;ATOMIUM 6\n1020 LAEKEN"}, "geometry": {"type": "Point", "coordinates": [4.3429924, 50.8959707]}}, {"type": "Feature", "properties": {"ts_week": 840, "ts_sat": null, "status": "In Service", "id": "10000199", "address_fr": "SQUARE DE L&#39;ATOMIUM 1\n1020 LAEKEN"}, "geometry": {"type": "Point", "coordinates": [4.3413578, 50.895003]}}, {"type": "Feature", "properties": {"ts_week": 600, "ts_sat": null, "status": "In Service", "id": "47018421", "address_fr": "ATZERATH 26\n4783 LOMMERSWEILER"}, "geometry": {"type": "Point", "coordinates": [6.221338, 50.28156]}}, {"type": "Feature", "properties": {"ts_week": 600, "ts_sat": null, "status": "In Service", "id": "48012137", "address_fr": "AU CH\u00caNE 1\n4861 SOIRON"}, "geometry": {"type": "Point", "coordinates": [5.754848, 50.584982]}}, {"type": "Feature", "properties": {"ts_week": 600, "ts_sat": null, "status": "In Service", "id": "48012053", "address_fr": "AU PAIRON 4\n4831 BILSTAIN"}, "geometry": {"type": "Point", "coordinates": [5.919533, 50.624836]}}, {"type": "Feature", "properties": {"ts_week": 600, "ts_sat": null, "status": "In Service", "id": "85007245", "address_fr": "AUBETTESTRAAT 3\n8510 BELLEGEM"}, "geometry": {"type": "Point", "coordinates": [3.291312, 50.791483]}}, {"type": "Feature", "properties": {"ts_week": 825, "ts_sat": null, "status": "In Service", "id": "10800714", "address_fr": "RUE AUDREY HEPBURN 10\n1090 JETTE"}, "geometry": {"type": "Point", "coordinates": [4.3126891, 50.8906106]}}, {"type": "Feature", "properties": {"ts_week": 600, "ts_sat": null, "status": "In Service", "id": "47011864", "address_fr": "AUF DEM HAU 2\n4750 ELSENBORN"}, "geometry": {"type": "Point", "coordinates": [6.204535, 50.520457]}}, {"type": "Feature", "properties": {"ts_week": 840, "ts_sat": null, "status": "In Service", "id": "4217", "address_fr": "AUF DER TOMM 6\n6630 GRUMELANGE"}, "geometry": {"type": "Point", "coordinates": [5.754948, 49.846294]}}, {"type": "Feature", "properties": {"ts_week": 600, "ts_sat": null, "status": "In Service", "id": "33003468", "address_fr": "AUG. ROBIJNSSTRAAT 17\n3404 ATTENHOVEN"}, "geometry": {"type": "Point", "coordinates": [5.096738, 50.763972]}}, {"type": "Feature", "properties": {"ts_week": 600, "ts_sat": null, "status": "In Service", "id": "22004094", "address_fr": "AUGUST CANNAERTSSTRAAT 107\n2260 WESTERLO"}, "geometry": {"type": "Point", "coordinates": [4.822509, 51.09386]}}, {"type": "Feature", "properties": {"ts_week": 1020, "ts_sat": 720, "status": "In Service", "id": "32003224", "address_fr": "AUGUST NIHOULSTRAAT 3\n3270 SCHERPENHEUVEL"}, "geometry": {"type": "Point", "coordinates": [4.975179, 50.9798278]}}, {"type": "Feature", "properties": {"ts_week": 1005, "ts_sat": 705, "status": "In Service", "id": "32003226", "address_fr": "AUGUST NIHOULSTRAAT 142\n3270 SCHERPENHEUVEL"}, "geometry": {"type": "Point", "coordinates": [4.9721538, 50.9731678]}}, {"type": "Feature", "properties": {"ts_week": 810, "ts_sat": null, "status": "In Service", "id": "84007079", "address_fr": "AUGUST PLOVIEPLEIN 1\n8450 BREDENE"}, "geometry": {"type": "Point", "coordinates": [2.963378, 51.225452]}}, {"type": "Feature", "properties": {"ts_week": 870, "ts_sat": null, "status": "In Service", "id": "3066", "address_fr": "AUGUST VAN DE WIELELEI 13-15\n2100 DEURNE"}, "geometry": {"type": "Point", "coordinates": [4.476332, 51.219006]}}, {"type": "Feature", "properties": {"ts_week": 885, "ts_sat": null, "status": "In Service", "id": "28005030", "address_fr": "AUGUST VAN LANDEGHEMSTRAAT 99-101\n2830 WILLEBROEK"}, "geometry": {"type": "Point", "coordinates": [4.3620904, 51.0635974]}}, {"type": "Feature", "properties": {"ts_week": 840, "ts_sat": null, "status": "In Service", "id": "1873", "address_fr": "AUGUST VAN PUTLEI 103\n2150 BORSBEEK"}, "geometry": {"type": "Point", "coordinates": [4.4743194, 51.1972953]}}, {"type": "Feature", "properties": {"ts_week": 810, "ts_sat": null, "status": "In Service", "id": "20003744", "address_fr": "AUGUST VERMEYLENLAAN 13\n2050 ANTWERPEN"}, "geometry": {"type": "Point", "coordinates": [4.37864, 51.23108]}}, {"type": "Feature", "properties": {"ts_week": 915, "ts_sat": null, "status": "In Service", "id": "28005085", "address_fr": "AUGUST VERMEYLENSTRAAT 18\n2845 NIEL"}, "geometry": {"type": "Point", "coordinates": [4.3433973, 51.1110743]}}, {"type": "Feature", "properties": {"ts_week": 615, "ts_sat": null, "status": "In Service", "id": "15001858", "address_fr": "AUGUSTE DEMAEGHTLAAN 9/11\n1500 HALLE"}, "geometry": {"type": "Point", "coordinates": [4.238087, 50.740169]}}, {"type": "Feature", "properties": {"ts_week": 840, "ts_sat": null, "status": "In Service", "id": "3651", "address_fr": "RUE AUGUSTE HAINAUT 18\n1090 JETTE"}, "geometry": {"type": "Point", "coordinates": [4.3358541, 50.8684796]}}, {"type": "Feature", "properties": {"ts_week": 825, "ts_sat": null, "status": "In Service", "id": "10800615", "address_fr": "RUE AUGUSTE VAN ZANDE 81\n1080 MOLENBEEK-SAINT-JEAN"}, "geometry": {"type": "Point", "coordinates": [4.306269, 50.86315]}}, {"type": "Feature", "properties": {"ts_week": 840, "ts_sat": null, "status": "In Service", "id": "11400756", "address_fr": "AVENUE AUGUSTE VERMEYLEN 2\n1140 EVERE"}, "geometry": {"type": "Point", "coordinates": [4.4251995, 50.8627661]}}, {"type": "Feature", "properties": {"ts_week": 600, "ts_sat": null, "status": "In Service", "id": "89007959", "address_fr": "AUGUSTIJNENSTRAAT 58\n8900 IEPER"}, "geometry": {"type": "Point", "coordinates": [2.866765, 50.854157]}}, {"type": "Feature", "properties": {"ts_week": 915, "ts_sat": null, "status": "In Service", "id": "21005292", "address_fr": "AUGUSTIJNSLEI 76\n2930 BRASSCHAAT"}, "geometry": {"type": "Point", "coordinates": [4.489288, 51.295534]}}, {"type": "Feature", "properties": {"ts_week": 1005, "ts_sat": null, "status": "In Service", "id": "21005293", "address_fr": "AUGUSTIJNSLEI 9\n2930 BRASSCHAAT"}, "geometry": {"type": "Point", "coordinates": [4.490863, 51.29072]}}, {"type": "Feature", "properties": {"ts_week": 870, "ts_sat": null, "status": "In Service", "id": "21005291", "address_fr": "AUGUSTIJNSLEI 222\n2930 BRASSCHAAT"}, "geometry": {"type": "Point", "coordinates": [4.485724, 51.303578]}}, {"type": "Feature", "properties": {"ts_week": 1005, "ts_sat": null, "status": "In Service", "id": "21005294", "address_fr": "AUGUSTIJNSLEI 9\n2930 BRASSCHAAT"}, "geometry": {"type": "Point", "coordinates": [4.490816, 51.290708]}}, {"type": "Feature", "properties": {"ts_week": 660, "ts_sat": null, "status": "In Service", "id": "78017903", "address_fr": "AULNOIT 10\n7880 FLOBECQ"}, "geometry": {"type": "Point", "coordinates": [3.76582, 50.742819]}}, {"type": "Feature", "properties": {"ts_week": 960, "ts_sat": 660, "status": "In Service", "id": "1944", "address_fr": "AUTOBAAN 19\n8210 LOPPEM"}, "geometry": {"type": "Point", "coordinates": [3.189518, 51.158095]}}, {"type": "Feature", "properties": {"ts_week": 885, "ts_sat": null, "status": "In Service", "id": "46018278", "address_fr": "AUTOROUTE E40 4\n4630 TIGN\u00c9E"}, "geometry": {"type": "Point", "coordinates": [5.7048588, 50.6496711]}}, {"type": "Feature", "properties": {"ts_week": 870, "ts_sat": null, "status": "In Service", "id": "46011652", "address_fr": "AUTOROUTE E40 1\n4632 C\u00c9REXHE-HEUSEUX"}, "geometry": {"type": "Point", "coordinates": [5.7230825, 50.6559263]}}, {"type": "Feature", "properties": {"ts_week": 720, "ts_sat": null, "status": "In Service", "id": "84018262", "address_fr": "AUTOSNELWEG NOORD ZN1\n8433 MANNEKENSVERE"}, "geometry": {"type": "Point", "coordinates": [2.820346, 51.135865]}}, {"type": "Feature", "properties": {"ts_week": 1005, "ts_sat": null, "status": "In Service", "id": "84018263", "address_fr": "AUTOSNELWEG ZUID ZN1\n8433 MANNEKENSVERE"}, "geometry": {"type": "Point", "coordinates": [2.818136, 51.133953]}}, {"type": "Feature", "properties": {"ts_week": 690, "ts_sat": null, "status": "In Service", "id": "26004694", "address_fr": "AUWERSSTRAAT 67\n2600 BERCHEM"}, "geometry": {"type": "Point", "coordinates": [4.4251775, 51.199772]}}, {"type": "Feature", "properties": {"ts_week": 600, "ts_sat": null, "status": "In Service", "id": "40010677", "address_fr": "AUX HOUX 1\n4480 CLERMONT-SOUS-HUY"}, "geometry": {"type": "Point", "coordinates": [5.403826, 50.546244]}}, {"type": "Feature", "properties": {"ts_week": 1020, "ts_sat": 750, "status": "In Service", "id": "85007329", "address_fr": "AVELGEMSTRAAT 6\n8550 ZWEVEGEM"}, "geometry": {"type": "Point", "coordinates": [3.333049, 50.812669]}}, {"type": "Feature", "properties": {"ts_week": 600, "ts_sat": null, "status": "In Service", "id": "13001275", "address_fr": "AVENUE ADRIEN STAS 2\n1350 JAUCHE"}, "geometry": {"type": "Point", "coordinates": [4.9553929, 50.6826585]}}, {"type": "Feature", "properties": {"ts_week": 1020, "ts_sat": null, "status": "In Service", "id": "3539", "address_fr": "AVENUE ALBERT 1ER 79\n5070 FOSSES-LA-VILLE"}, "geometry": {"type": "Point", "coordinates": [4.687364, 50.393985]}}, {"type": "Feature", "properties": {"ts_week": 600, "ts_sat": null, "status": "In Service", "id": "13001237", "address_fr": "AVENUE ALBERT I 102\n1342 LIMELETTE"}, "geometry": {"type": "Point", "coordinates": [4.5718524, 50.6755888]}}, {"type": "Feature", "properties": {"ts_week": 600, "ts_sat": null, "status": "In Service", "id": "13001168", "address_fr": "AVENUE ALBERT IER 239\n1332 GENVAL"}, "geometry": {"type": "Point", "coordinates": [4.509264, 50.725336]}}, {"type": "Feature", "properties": {"ts_week": 660, "ts_sat": null, "status": "In Service", "id": "25", "address_fr": "AVENUE ALBERT IER 265\n5000 NAMUR"}, "geometry": {"type": "Point", "coordinates": [4.892483, 50.467473]}}, {"type": "Feature", "properties": {"ts_week": 855, "ts_sat": null, "status": "In Service", "id": "50013944", "address_fr": "AVENUE ALBERT IER 185\n5000 NAMUR"}, "geometry": {"type": "Point", "coordinates": [4.887063, 50.466847]}}, {"type": "Feature", "properties": {"ts_week": 855, "ts_sat": null, "status": "In Service", "id": "50013943", "address_fr": "AVENUE ALBERT IER 185\n5000 NAMUR"}, "geometry": {"type": "Point", "coordinates": [4.887063, 50.466847]}}, {"type": "Feature", "properties": {"ts_week": 1020, "ts_sat": 660, "status": "In Service", "id": "13001167", "address_fr": "AVENUE ALBERT IER 12\n1332 GENVAL"}, "geometry": {"type": "Point", "coordinates": [4.487418, 50.727456]}}, {"type": "Feature", "properties": {"ts_week": 855, "ts_sat": null, "status": "In Service", "id": "50013943", "address_fr": "AVENUE ALBERT1ER 185\n5000 NAMUR"}, "geometry": {"type": "Point", "coordinates": [4.887288, 50.467419]}}, {"type": "Feature", "properties": {"ts_week": 600, "ts_sat": null, "status": "In Service", "id": "14001561", "address_fr": "AVENUE ALPHONSE ALLARD 350\n1420 BRAINE-L&#39;ALLEUD"}, "geometry": {"type": "Point", "coordinates": [4.385385, 50.671557]}}, {"type": "Feature", "properties": {"ts_week": 600, "ts_sat": null, "status": "In Service", "id": "14001560", "address_fr": "AVENUE ALPHONSE ALLARD 232\n1420 BRAINE-L&#39;ALLEUD"}, "geometry": {"type": "Point", "coordinates": [4.3826921, 50.6750495]}}, {"type": "Feature", "properties": {"ts_week": 720, "ts_sat": null, "status": "In Service", "id": "240", "address_fr": "AVENUE AMAND DE MENDIETA 26\n5500 DINANT"}, "geometry": {"type": "Point", "coordinates": [4.898865, 50.239552]}}, {"type": "Feature", "properties": {"ts_week": 930, "ts_sat": null, "status": "In Service", "id": "48011953", "address_fr": "AVENUE ANDR\u00c9 ERNST 1Z\n4800 PETIT-RECHAIN"}, "geometry": {"type": "Point", "coordinates": [5.835047, 50.619621]}}, {"type": "Feature", "properties": {"ts_week": 1005, "ts_sat": null, "status": "In Service", "id": "3501", "address_fr": "AVENUE ARSENE TOURNAY 40\n1495 VILLERS-LA-VILLE"}, "geometry": {"type": "Point", "coordinates": [4.528414, 50.581941]}}, {"type": "Feature", "properties": {"ts_week": 600, "ts_sat": null, "status": "In Service", "id": "68013250", "address_fr": "AVENUE ARTHUR TAGNON 28\n6850 CARLSBOURG"}, "geometry": {"type": "Point", "coordinates": [5.082483, 49.898648]}}, {"type": "Feature", "properties": {"ts_week": 855, "ts_sat": null, "status": "In Service", "id": "13001042", "address_fr": "AVENUE AUGUSTE MATTAGNE 3\n1300 WAVRE"}, "geometry": {"type": "Point", "coordinates": [4.6132211, 50.7187442]}}, {"type": "Feature", "properties": {"ts_week": 870, "ts_sat": null, "status": "In Service", "id": "50013945", "address_fr": "AVENUE BARON DE MOREAU 1\n5000 NAMUR"}, "geometry": {"type": "Point", "coordinates": [4.862425, 50.456619]}}, {"type": "Feature", "properties": {"ts_week": 870, "ts_sat": null, "status": "In Service", "id": "14001606", "address_fr": "AVENUE B\u00c9ATRICE DE CUSANCE 59\n1420 BRAINE-L&#39;ALLEUD"}, "geometry": {"type": "Point", "coordinates": [4.384885, 50.6807637]}}, {"type": "Feature", "properties": {"ts_week": 615, "ts_sat": null, "status": "In Service", "id": "593", "address_fr": "AVENUE BEAU S\u00c9JOUR 25\n7500 TOURNAI"}, "geometry": {"type": "Point", "coordinates": [3.363701, 50.614033]}}, {"type": "Feature", "properties": {"ts_week": 600, "ts_sat": null, "status": "In Service", "id": "13001169", "address_fr": "AVENUE BEL HORIZON 39\n1332 GENVAL"}, "geometry": {"type": "Point", "coordinates": [4.507082, 50.72872]}}, {"type": "Feature", "properties": {"ts_week": 600, "ts_sat": null, "status": "In Service", "id": "14001532", "address_fr": "AVENUE BL\u00dcCHER 2\n1410 WATERLOO"}, "geometry": {"type": "Point", "coordinates": [4.4047539, 50.7163798]}}, {"type": "Feature", "properties": {"ts_week": 600, "ts_sat": null, "status": "In Service", "id": "67012923", "address_fr": "AVENUE BOUVIER 68\n6762 SAINT-MARD"}, "geometry": {"type": "Point", "coordinates": [5.523183, 49.5636905]}}, {"type": "Feature", "properties": {"ts_week": 840, "ts_sat": null, "status": "In Service", "id": "40010182", "address_fr": "AVENUE CARDINAL-MERCIER 6\n4020 BRESSOUX"}, "geometry": {"type": "Point", "coordinates": [5.602818, 50.636685]}}, {"type": "Feature", "properties": {"ts_week": 600, "ts_sat": null, "status": "In Service", "id": "43011192", "address_fr": "AVENUE C\u00c9LESTE MAJEAN 38\n4340 AWANS"}, "geometry": {"type": "Point", "coordinates": [5.460824, 50.674204]}}, {"type": "Feature", "properties": {"ts_week": 1140, "ts_sat": null, "status": "In Service", "id": "60015202", "address_fr": "AVENUE CENTRALE 20\n6001 MARCINELLE"}, "geometry": {"type": "Point", "coordinates": [4.43578, 50.359588]}}, {"type": "Feature", "properties": {"ts_week": 705, "ts_sat": null, "status": "In Service", "id": "4272", "address_fr": "AVENUE CHANT D&#39;OISEAUX 4\n7090 BRAINE-LE-COMTE"}, "geometry": {"type": "Point", "coordinates": [4.161838, 50.604233]}}, {"type": "Feature", "properties": {"ts_week": 600, "ts_sat": null, "status": "In Service", "id": "2", "address_fr": "AVENUE CHARLES DE GAULLE 3\n5150 FLOREFFE"}, "geometry": {"type": "Point", "coordinates": [4.758207, 50.429452]}}, {"type": "Feature", "properties": {"ts_week": 615, "ts_sat": null, "status": "In Service", "id": "1352", "address_fr": "AVENUE CHARLES DELI\u00c8GE 118\n7130 BINCHE"}, "geometry": {"type": "Point", "coordinates": [4.167329, 50.41491]}}, {"type": "Feature", "properties": {"ts_week": 1035, "ts_sat": 780, "status": "In Service", "id": "45011224", "address_fr": "AVENUE CHARLES ET L\u00c9OPOLD GODIN 1\n4500 HUY"}, "geometry": {"type": "Point", "coordinates": [5.242304, 50.522756]}}, {"type": "Feature", "properties": {"ts_week": 945, "ts_sat": null, "status": "In Service", "id": "75017617", "address_fr": "AVENUE D&#39;AUDENARDE 208\n7540 KAIN"}, "geometry": {"type": "Point", "coordinates": [3.382868, 50.623137]}}, {"type": "Feature", "properties": {"ts_week": 885, "ts_sat": null, "status": "In Service", "id": "41010788", "address_fr": "AVENUE D&#39;ESNEUX 244-246\n4130 TILFF"}, "geometry": {"type": "Point", "coordinates": [5.5903754, 50.5478999]}}, {"type": "Feature", "properties": {"ts_week": 705, "ts_sat": null, "status": "In Service", "id": "70616551", "address_fr": "AVENUE D&#39;HAZEBROUCK 32\n7060 SOIGNIES"}, "geometry": {"type": "Point", "coordinates": [4.054609, 50.585706]}}, {"type": "Feature", "properties": {"ts_week": 600, "ts_sat": null, "status": "In Service", "id": "1631", "address_fr": "AVENUE DE BARISART 211\n4900 SPA"}, "geometry": {"type": "Point", "coordinates": [5.859907, 50.4843248]}}, {"type": "Feature", "properties": {"ts_week": 1095, "ts_sat": 750, "status": "In Service", "id": "45011225", "address_fr": "AVENUE DE BATTA 8\n4500 HUY"}, "geometry": {"type": "Point", "coordinates": [5.235834, 50.520046]}}, {"type": "Feature", "properties": {"ts_week": 600, "ts_sat": null, "status": "In Service", "id": "45011239", "address_fr": "AVENUE DE BEAUFORT 67\n4500 BEN-AHIN"}, "geometry": {"type": "Point", "coordinates": [5.194631, 50.51955]}}, {"type": "Feature", "properties": {"ts_week": 840, "ts_sat": 810, "status": "In Service", "id": "68013091", "address_fr": "AVENUE DE BOUILLON 141\n6800 RECOGNE"}, "geometry": {"type": "Point", "coordinates": [5.355908, 49.912212]}}, {"type": "Feature", "properties": {"ts_week": 840, "ts_sat": 810, "status": "In Service", "id": "68013083", "address_fr": "AVENUE DE BOUILLON 101\n6800 RECOGNE"}, "geometry": {"type": "Point", "coordinates": [5.363519, 49.915666]}}, {"type": "Feature", "properties": {"ts_week": 1140, "ts_sat": 840, "status": "In Service", "id": "68013092", "address_fr": "AVENUE DE BOUILLON 20-22\n6800 LIBRAMONT-CHEVIGNY"}, "geometry": {"type": "Point", "coordinates": [5.374586, 49.918419]}}, {"type": "Feature", "properties": {"ts_week": 600, "ts_sat": null, "status": "In Service", "id": "13001045", "address_fr": "AVENUE DE CH\u00c9R\u00c9MONT 35\n1300 WAVRE"}, "geometry": {"type": "Point", "coordinates": [4.6244799, 50.7087116]}}, {"type": "Feature", "properties": {"ts_week": 990, "ts_sat": 780, "status": "In Service", "id": "3847", "address_fr": "AVENUE DE COPENHAGUE 505\n7020 MAISI\u00c8RES"}, "geometry": {"type": "Point", "coordinates": [3.972644, 50.504251]}}, {"type": "Feature", "properties": {"ts_week": 1020, "ts_sat": 600, "status": "In Service", "id": "53018082", "address_fr": "AVENUE DE CRIEL 35\n5370 HAVELANGE"}, "geometry": {"type": "Point", "coordinates": [5.238478, 50.389664]}}, {"type": "Feature", "properties": {"ts_week": 975, "ts_sat": null, "status": "In Service", "id": "40010042", "address_fr": "AVENUE DE CUREGHEM 3-7D\n4000 LI\u00c8GE"}, "geometry": {"type": "Point", "coordinates": [5.569025, 50.585447]}}, {"type": "Feature", "properties": {"ts_week": 960, "ts_sat": null, "status": "In Service", "id": "41010699", "address_fr": "AVENUE DE DOUAI 2A\n4101 JEMEPPE-SUR-MEUSE"}, "geometry": {"type": "Point", "coordinates": [5.487353, 50.619494]}}, {"type": "Feature", "properties": {"ts_week": 917, "ts_sat": null, "status": "In Service", "id": "204", "address_fr": "AVENUE DE FOREST 34\n5580 ROCHEFORT"}, "geometry": {"type": "Point", "coordinates": [5.221037, 50.158484]}}, {"type": "Feature", "properties": {"ts_week": 600, "ts_sat": null, "status": "In Service", "id": "69013379", "address_fr": "AVENUE DE FRANCE 158\n6900 MARCHE-EN-FAMENNE"}, "geometry": {"type": "Point", "coordinates": [5.3263595, 50.2086165]}}, {"type": "Feature", "properties": {"ts_week": 1035, "ts_sat": 900, "status": "In Service", "id": "2564", "address_fr": "AVENUE DE FRANCE 39\n6900 MARCHE-EN-FAMENNE"}, "geometry": {"type": "Point", "coordinates": [5.3406731, 50.2268952]}}, {"type": "Feature", "properties": {"ts_week": 645, "ts_sat": null, "status": "In Service", "id": "4252", "address_fr": "AVENUE DE FRANCE 280\n7380 BAISIEUX"}, "geometry": {"type": "Point", "coordinates": [3.676454, 50.389429]}}, {"type": "Feature", "properties": {"ts_week": 705, "ts_sat": null, "status": "In Service", "id": "1502", "address_fr": "AVENUE DE FRANCE 44\n7141 CARNI\u00c8RES"}, "geometry": {"type": "Point", "coordinates": [4.254351, 50.435408]}}, {"type": "Feature", "properties": {"ts_week": 855, "ts_sat": null, "status": "In Service", "id": "14001570", "address_fr": "AVENUE DE L&#39;ARTISANAT 4\n1420 BRAINE-L&#39;ALLEUD"}, "geometry": {"type": "Point", "coordinates": [4.3618996, 50.69612]}}, {"type": "Feature", "properties": {"ts_week": 855, "ts_sat": null, "status": "In Service", "id": "14001569", "address_fr": "AVENUE DE L&#39;ARTISANAT 4\n1420 BRAINE-L&#39;ALLEUD"}, "geometry": {"type": "Point", "coordinates": [4.3618996, 50.69612]}}, {"type": "Feature", "properties": {"ts_week": 1020, "ts_sat": null, "status": "In Service", "id": "40010551", "address_fr": "AVENUE DE L&#39;ENERGIE 1A\n4432 ALLEUR"}, "geometry": {"type": "Point", "coordinates": [5.52401, 50.673914]}}, {"type": "Feature", "properties": {"ts_week": 600, "ts_sat": null, "status": "In Service", "id": "13001253", "address_fr": "AVENUE DE L&#39;ESPINETTE 16\n1348 LOUVAIN-LA-NEUVE"}, "geometry": {"type": "Point", "coordinates": [4.6158931, 50.6657481]}}, {"type": "Feature", "properties": {"ts_week": 1020, "ts_sat": 780, "status": "In Service", "id": "71016796", "address_fr": "AVENUE DE L&#39;ESPLANADE 3\n7100 LA LOUVI\u00c8RE"}, "geometry": {"type": "Point", "coordinates": [4.180472, 50.477662]}}, {"type": "Feature", "properties": {"ts_week": 855, "ts_sat": null, "status": "In Service", "id": "1272", "address_fr": "AVENUE DE L&#39;EUROPE 38\n5620 FLORENNES"}, "geometry": {"type": "Point", "coordinates": [4.611536, 50.264771]}}, {"type": "Feature", "properties": {"ts_week": 1020, "ts_sat": null, "status": "In Service", "id": "60015204", "address_fr": "AVENUE DE L&#39;EUROPE 21\n6000 CHARLEROI"}, "geometry": {"type": "Point", "coordinates": [4.441343, 50.412824]}}, {"type": "Feature", "properties": {"ts_week": 1020, "ts_sat": 615, "status": "In Service", "id": "40010290", "address_fr": "AVENUE DE L&#39;H\u00d4PITAL 1\n4000 LI\u00c8GE"}, "geometry": {"type": "Point", "coordinates": [5.567091, 50.57229]}}, {"type": "Feature", "properties": {"ts_week": 720, "ts_sat": null, "status": "In Service", "id": "1017", "address_fr": "AVENUE DE L&#39;IND\u00c9PENDANCE 2\n7090 BRAINE-LE-COMTE"}, "geometry": {"type": "Point", "coordinates": [4.151098, 50.61891]}}, {"type": "Feature", "properties": {"ts_week": 945, "ts_sat": null, "status": "In Service", "id": "40010005", "address_fr": "AVENUE DE L&#39;OBSERVATOIRE 142\n4000 LI\u00c8GE"}, "geometry": {"type": "Point", "coordinates": [5.564108, 50.623422]}}, {"type": "Feature", "properties": {"ts_week": 915, "ts_sat": null, "status": "In Service", "id": "70016403", "address_fr": "AVENUE DE L&#39;UNIVERSIT\u00c9 25\n7000 MONS"}, "geometry": {"type": "Point", "coordinates": [3.945605, 50.460321]}}, {"type": "Feature", "properties": {"ts_week": 765, "ts_sat": null, "status": "In Service", "id": "1118", "address_fr": "AVENUE DE L&#39;YSER 7\n7870 LOMBISE"}, "geometry": {"type": "Point", "coordinates": [3.934391, 50.601778]}}, {"type": "Feature", "properties": {"ts_week": 735, "ts_sat": null, "status": "In Service", "id": "75017508", "address_fr": "AVENUE DE LA BASILIQUE 116\n7603 BON-SECOURS"}, "geometry": {"type": "Point", "coordinates": [3.600713, 50.501616]}}, {"type": "Feature", "properties": {"ts_week": 720, "ts_sat": null, "status": "In Service", "id": "2192", "address_fr": "AVENUE DE LA BASILIQUE 2\n7603 BON-SECOURS"}, "geometry": {"type": "Point", "coordinates": [3.606987, 50.497604]}}, {"type": "Feature", "properties": {"ts_week": 600, "ts_sat": null, "status": "In Service", "id": "14001531", "address_fr": "AVENUE DE LA BERGERIE 26\n1410 WATERLOO"}, "geometry": {"type": "Point", "coordinates": [4.3905032, 50.7128744]}}, {"type": "Feature", "properties": {"ts_week": 600, "ts_sat": null, "status": "In Service", "id": "446", "address_fr": "AVENUE DE LA C.E.C.A. 19\n6001 MARCINELLE"}, "geometry": {"type": "Point", "coordinates": [4.438301, 50.387905]}}, {"type": "Feature", "properties": {"ts_week": 600, "ts_sat": null, "status": "In Service", "id": "67012816", "address_fr": "AVENUE DE LA CAVALERIE 25\n6700 STOCKEM"}, "geometry": {"type": "Point", "coordinates": [5.774239, 49.679887]}}, {"type": "Feature", "properties": {"ts_week": 975, "ts_sat": null, "status": "In Service", "id": "2200", "address_fr": "AVENUE DE LA CHEVAUCH\u00c9E 2\n4121 NEUVILLE-EN-CONDROZ"}, "geometry": {"type": "Point", "coordinates": [5.482943, 50.54404]}}, {"type": "Feature", "properties": {"ts_week": 975, "ts_sat": null, "status": "In Service", "id": "40010004", "address_fr": "AVENUE DE LA CLOSERAIE 31\n4000 ROCOURT"}, "geometry": {"type": "Point", "coordinates": [5.553446, 50.666678]}}, {"type": "Feature", "properties": {"ts_week": 885, "ts_sat": null, "status": "In Service", "id": "40010278", "address_fr": "AVENUE DE LA COKERIE 25\n4030 GRIVEGNEE"}, "geometry": {"type": "Point", "coordinates": [5.594895, 50.622318]}}, {"type": "Feature", "properties": {"ts_week": 1020, "ts_sat": 720, "status": "In Service", "id": "71016704", "address_fr": "AVENUE DE LA D\u00c9PORTATION 63\n7190 ECAUSSINNES-D&#39;ENGHIEN"}, "geometry": {"type": "Point", "coordinates": [4.157324, 50.562108]}}, {"type": "Feature", "properties": {"ts_week": 1020, "ts_sat": 720, "status": "In Service", "id": "71016705", "address_fr": "AVENUE DE LA D\u00c9PORTATION 19\n7190 ECAUSSINNES-D&#39;ENGHIEN"}, "geometry": {"type": "Point", "coordinates": [4.159963, 50.563102]}}, {"type": "Feature", "properties": {"ts_week": 1020, "ts_sat": 600, "status": "In Service", "id": "50013784", "address_fr": "AVENUE DE LA FACULT\u00c9 D&#39;AGRONOMIE 85\n5030 GEMBLOUX"}, "geometry": {"type": "Point", "coordinates": [4.694032, 50.568002]}}, {"type": "Feature", "properties": {"ts_week": 885, "ts_sat": null, "status": "In Service", "id": "50013783", "address_fr": "AVENUE DE LA FACULT\u00c9 D&#39;AGRONOMIE 41\n5030 GEMBLOUX"}, "geometry": {"type": "Point", "coordinates": [4.69576, 50.565658]}}, {"type": "Feature", "properties": {"ts_week": 600, "ts_sat": null, "status": "In Service", "id": "13001170", "address_fr": "AVENUE DE LA FAISANDERIE 1\n1332 GENVAL"}, "geometry": {"type": "Point", "coordinates": [4.499198, 50.728958]}}, {"type": "Feature", "properties": {"ts_week": 600, "ts_sat": null, "status": "In Service", "id": "1043", "address_fr": "AVENUE DE LA FRANCE 1\n7012 JEMAPPES"}, "geometry": {"type": "Point", "coordinates": [3.881447, 50.44479]}}, {"type": "Feature", "properties": {"ts_week": 600, "ts_sat": null, "status": "In Service", "id": "46011579", "address_fr": "AVENUE DE LA GARE 58\n4610 BEYNE-HEUSAY"}, "geometry": {"type": "Point", "coordinates": [5.6570927, 50.6186269]}}, {"type": "Feature", "properties": {"ts_week": 600, "ts_sat": null, "status": "In Service", "id": "67012848", "address_fr": "AVENUE DE LA GARE 109\n6720 HABAY-LA-NEUVE"}, "geometry": {"type": "Point", "coordinates": [5.635638, 49.717862]}},