{"type": "FeatureCollection", "features": [{"type": "Feature", "properties": {"id": "15400", "address_fr": "ALLÉE DE LA PEUPLERAIE 4\n1300 WAVRE", "status": "ACTIVE", "ts_sat": null, "ts_week": 600}, "geometry": {"type": "Point", "coordinates": [4.638964, 50.703662]}}, {"type": "Feature", "properties": {"id": "7695", "address_fr": "ALLÉE DE LA RECHERCHE 30\n1070 ANDERLECHT", "status": "ACTIVE", "ts_sat": null, "ts_week": 600}, "geometry": {"type": "Point", "coordinates": [4.267653, 50.816932]}}, {"type": "Feature", "properties": {"id": "11294", "address_fr": "ALLÉE DES FREESIAS 1\n1030 SCHAERBEEK", "status": "ACTIVE", "ts_sat": null, "ts_week": 600}, "geometry": {"type": "Point", "coordinates": [4.390738, 50.865287]}}, {"type": "Feature", "properties": {"id": "11365", "address_fr": "ANCIENNE DRÈVE DES TILLEULS 1\n1370 JODOIGNE", "status": "ACTIVE", "ts_sat": null, "ts_week": 600}, "geometry": {"type": "Point", "coordinates": [4.861736, 50.72448]}}, {"type": "Feature", "properties": {"id": "7665", "address_fr": "AVENUE ACHILLE REISDORFF 47\n1180 UCCLE", "status": "ACTIVE", "ts_sat": null, "ts_week": 780}, "geometry": {"type": "Point", "coordinates": [4.324736, 50.793126]}}, {"type": "Feature", "properties": {"id": "9861", "address_fr": "AVENUE ADOLPHE BUYL 110A\n1050 IXELLES", "status": "ACTIVE", "ts_sat": null, "ts_week": 600}, "geometry": {"type": "Point", "coordinates": [4.382851, 50.816193]}}, {"type": "Feature", "properties": {"id": "9407", "address_fr": "AVENUE ADOLPHE BUYL 157\n1050 IXELLES", "status": "ACTIVE", "ts_sat": null, "ts_week": 600}, "geometry": {"type": "Point", "coordinates": [4.385039, 50.812203]}}, {"type": "Feature", "properties": {"id": "11347", "address_fr": "AVENUE ADRIEN STAS 2\n1350 JAUCHE", "status": "ACTIVE", "ts_sat": null, "ts_week": 600}, "geometry": {"type": "Point", "coordinates": [4.9553, 50.682749]}}, {"type": "Feature", "properties": {"id": "6876", "address_fr": "AVENUE ALBERT 293\n1180 UCCLE", "status": "ACTIVE", "ts_sat": null, "ts_week": 780}, "geometry": {"type": "Point", "coordinates": [4.347366, 50.814085]}}, {"type": "Feature", "properties": {"id": "14051", "address_fr": "AVENUE ALBERT I 102\n1342 LIMELETTE", "status": "ACTIVE", "ts_sat": null, "ts_week": 600}, "geometry": {"type": "Point", "coordinates": [4.571915, 50.675767]}}, {"type": "Feature", "properties": {"id": "14497", "address_fr": "AVENUE ALBERT IER 239\n1332 GENVAL", "status": "ACTIVE", "ts_sat": null, "ts_week": 600}, "geometry": {"type": "Point", "coordinates": [4.509264, 50.725336]}}, {"type": "Feature", "properties": {"id": "8285", "address_fr": "AVENUE ALBERT IER 12\n1332 GENVAL", "status": "ACTIVE", "ts_sat": null, "ts_week": 780}, "geometry": {"type": "Point", "coordinates": [4.487418, 50.727456]}}, {"type": "Feature", "properties": {"id": "6995", "address_fr": "AVENUE ALEXANDRE BERTRAND 50\n1190 FOREST", "status": "ACTIVE", "ts_sat": null, "ts_week": 600}, "geometry": {"type": "Point", "coordinates": [4.336373, 50.81878]}}, {"type": "Feature", "properties": {"id": "8223", "address_fr": "AVENUE ALFRED MADOUX 4B\n1150 WOLUWE-SAINT-PIERRE", "status": "ACTIVE", "ts_sat": null, "ts_week": 600}, "geometry": {"type": "Point", "coordinates": [4.446806, 50.827895]}}, {"type": "Feature", "properties": {"id": "8237", "address_fr": "AVENUE ANTOINE JOSEPH SLEGERS 204\n1200 WOLUWE-SAINT-LAMBERT", "status": "ACTIVE", "ts_sat": null, "ts_week": 600}, "geometry": {"type": "Point", "coordinates": [4.419561386, 50.84066391]}}, {"type": "Feature", "properties": {"id": "13285", "address_fr": "AVENUE ANTOON VAN OSS 1\n1120 NEDER-OVER-HEEMBEEK", "status": "ACTIVE", "ts_sat": null, "ts_week": 1020}, "geometry": {"type": "Point", "coordinates": [4.403261, 50.905954]}}, {"type": "Feature", "properties": {"id": "15591", "address_fr": "AVENUE AUGUSTE MATTAGNE 3\n1300 WAVRE", "status": "ACTIVE", "ts_sat": null, "ts_week": 600}, "geometry": {"type": "Point", "coordinates": [4.613333, 50.718589]}}, {"type": "Feature", "properties": {"id": "11803", "address_fr": "AVENUE AUGUSTE VERMEYLEN 2\n1140 EVERE", "status": "ACTIVE", "ts_sat": null, "ts_week": 600}, "geometry": {"type": "Point", "coordinates": [4.424709, 50.862858]}}, {"type": "Feature", "properties": {"id": "8224", "address_fr": "AVENUE BARON ALBERT D&#39;HUART 3\n1150 WOLUWE-SAINT-PIERRE", "status": "ACTIVE", "ts_sat": null, "ts_week": 780}, "geometry": {"type": "Point", "coordinates": [4.465623, 50.839337]}}, {"type": "Feature", "properties": {"id": "11339", "address_fr": "AVENUE BEL HORIZON 39\n1332 GENVAL", "status": "ACTIVE", "ts_sat": null, "ts_week": 600}, "geometry": {"type": "Point", "coordinates": [4.507082, 50.72872]}}, {"type": "Feature", "properties": {"id": "6996", "address_fr": "AVENUE BESME 94\n1190 FOREST", "status": "ACTIVE", "ts_sat": null, "ts_week": 780}, "geometry": {"type": "Point", "coordinates": [4.341992, 50.821639]}}, {"type": "Feature", "properties": {"id": "89648", "address_fr": "AVENUE BOURGMESTRE JEAN HERINCKX 8\n1180 UCCLE", "status": "ACTIVE", "ts_sat": null, "ts_week": 780}, "geometry": {"type": "Point", "coordinates": [4.347946, 50.807458]}}, {"type": "Feature", "properties": {"id": "10046", "address_fr": "AVENUE BROUSTIN 7\n1090 JETTE", "status": "ACTIVE", "ts_sat": null, "ts_week": 780}, "geometry": {"type": "Point", "coordinates": [4.325981, 50.86773]}}, {"type": "Feature", "properties": {"id": "9662", "address_fr": "AVENUE BROUSTIN 116\n1083 GANSHOREN", "status": "ACTIVE", "ts_sat": null, "ts_week": 600}, "geometry": {"type": "Point", "coordinates": [4.321431, 50.867225]}}, {"type": "Feature", "properties": {"id": "6997", "address_fr": "AVENUE BRUGMANN 119-121\n1190 FOREST", "status": "ACTIVE", "ts_sat": null, "ts_week": 600}, "geometry": {"type": "Point", "coordinates": [4.350898, 50.818557]}}, {"type": "Feature", "properties": {"id": "6926", "address_fr": "AVENUE BRUGMANN 617\n1180 UCCLE", "status": "ACTIVE", "ts_sat": null, "ts_week": 780}, "geometry": {"type": "Point", "coordinates": [4.336966, 50.800577]}}, {"type": "Feature", "properties": {"id": "89650", "address_fr": "AVENUE BRUGMANN 339\n1180 UCCLE", "status": "ACTIVE", "ts_sat": null, "ts_week": 600}, "geometry": {"type": "Point", "coordinates": [4.345935, 50.810036]}}, {"type": "Feature", "properties": {"id": "8252", "address_fr": "AVENUE CAPITAINE FOSSOUL 45\n1070 ANDERLECHT", "status": "ACTIVE", "ts_sat": null, "ts_week": 780}, "geometry": {"type": "Point", "coordinates": [4.285453, 50.832934]}}, {"type": "Feature", "properties": {"id": "9668", "address_fr": "AVENUE CARTON DE WIART 81\n1090 JETTE", "status": "ACTIVE", "ts_sat": null, "ts_week": 780}, "geometry": {"type": "Point", "coordinates": [4.330067, 50.867919]}}, {"type": "Feature", "properties": {"id": "7689", "address_fr": "AVENUE CHARLES GILISQUET 48\n1030 SCHAERBEEK", "status": "ACTIVE", "ts_sat": null, "ts_week": 780}, "geometry": {"type": "Point", "coordinates": [4.394145, 50.864449]}}, {"type": "Feature", "properties": {"id": "6549", "address_fr": "AVENUE CHARLES MADOUX 30\n1160 AUDERGHEM", "status": "ACTIVE", "ts_sat": null, "ts_week": 600}, "geometry": {"type": "Point", "coordinates": [4.402056, 50.82463]}}, {"type": "Feature", "properties": {"id": "76688", "address_fr": "AVENUE CHARLES QUINT 114\n1083 GANSHOREN", "status": "ACTIVE", "ts_sat": null, "ts_week": 780}, "geometry": {"type": "Point", "coordinates": [4.308945, 50.869499]}}, {"type": "Feature", "properties": {"id": "9684", "address_fr": "AVENUE CHARLES QUINT 560\n1082 BERCHEM-SAINTE-AGATHE", "status": "ACTIVE", "ts_sat": null, "ts_week": 780}, "geometry": {"type": "Point", "coordinates": [4.292441, 50.871922]}}, {"type": "Feature", "properties": {"id": "8441", "address_fr": "AVENUE CHARLES THIELEMANS 22\n1150 WOLUWE-SAINT-PIERRE", "status": "ACTIVE", "ts_sat": null, "ts_week": 1020}, "geometry": {"type": "Point", "coordinates": [4.43127203, 50.83700562]}}, {"type": "Feature", "properties": {"id": "7515", "address_fr": "AVENUE CIRCULAIRE 144\n1180 UCCLE", "status": "ACTIVE", "ts_sat": null, "ts_week": 780}, "geometry": {"type": "Point", "coordinates": [4.355652, 50.797659]}}, {"type": "Feature", "properties": {"id": "7696", "address_fr": "AVENUE CLEMENCEAU 24\n1070 ANDERLECHT", "status": "ACTIVE", "ts_sat": null, "ts_week": 600}, "geometry": {"type": "Point", "coordinates": [4.334935, 50.839972]}}, {"type": "Feature", "properties": {"id": "6998", "address_fr": "AVENUE CLÉMENTINE 24\n1190 FOREST", "status": "ACTIVE", "ts_sat": null, "ts_week": 600}, "geometry": {"type": "Point", "coordinates": [4.339151, 50.82499]}}, {"type": "Feature", "properties": {"id": "6580", "address_fr": "AVENUE COLONIALE 68\n1170 WATERMAEL-BOITSFORT", "status": "ACTIVE", "ts_sat": null, "ts_week": 780}, "geometry": {"type": "Point", "coordinates": [4.406643, 50.805273]}}, {"type": "Feature", "properties": {"id": "2641", "address_fr": "AVENUE D&#39;AUDERGHEM 311\n1040 ETTERBEEK", "status": "ACTIVE", "ts_sat": null, "ts_week": 780}, "geometry": {"type": "Point", "coordinates": [4.389837, 50.830945]}}, {"type": "Feature", "properties": {"id": "6928", "address_fr": "AVENUE D&#39;HOUGOUMONT 5\n1180 UCCLE", "status": "ACTIVE", "ts_sat": null, "ts_week": 780}, "geometry": {"type": "Point", "coordinates": [4.381892, 50.775663]}}, {"type": "Feature", "properties": {"id": "15880", "address_fr": "AVENUE D&#39;ITTERBEEK 201\n1070 ANDERLECHT", "status": "ACTIVE", "ts_sat": null, "ts_week": 780}, "geometry": {"type": "Point", "coordinates": [4.289349, 50.834713]}}, {"type": "Feature", "properties": {"id": "23443", "address_fr": "AVENUE DAILLY 259\n1030 SCHAERBEEK", "status": "ACTIVE", "ts_sat": null, "ts_week": 780}, "geometry": {"type": "Point", "coordinates": [4.387385, 50.852612]}}, {"type": "Feature", "properties": {"id": "6555", "address_fr": "AVENUE DE BEAULIEU 24\n1160 AUDERGHEM", "status": "ACTIVE", "ts_sat": null, "ts_week": 780}, "geometry": {"type": "Point", "coordinates": [4.408801, 50.814628]}}, {"type": "Feature", "properties": {"id": "6879", "address_fr": "AVENUE DE BEERSEL 98\n1180 UCCLE", "status": "ACTIVE", "ts_sat": null, "ts_week": 780}, "geometry": {"type": "Point", "coordinates": [4.323664, 50.784135]}}, {"type": "Feature", "properties": {"id": "94488", "address_fr": "AVENUE DE BOETENDAEL 90\n1180 UCCLE", "status": "ACTIVE", "ts_sat": null, "ts_week": 600}, "geometry": {"type": "Point", "coordinates": [4.344017, 50.806834]}}, {"type": "Feature", "properties": {"id": "8206", "address_fr": "AVENUE DE BROQUEVILLE 115\n1200 WOLUWE-SAINT-LAMBERT", "status": "ACTIVE", "ts_sat": null, "ts_week": 780}, "geometry": {"type": "Point", "coordinates": [4.415054, 50.841647]}}, {"type": "Feature", "properties": {"id": "15399", "address_fr": "AVENUE DE CHÉRÉMONT 35\n1300 WAVRE", "status": "ACTIVE", "ts_sat": null, "ts_week": 600}, "geometry": {"type": "Point", "coordinates": [4.62448, 50.708712]}}, {"type": "Feature", "properties": {"id": "15818", "address_fr": "AVENUE DE FLORÉAL 83\n1180 UCCLE", "status": "ACTIVE", "ts_sat": null, "ts_week": 600}, "geometry": {"type": "Point", "coordinates": [4.344566, 50.809186]}}, {"type": "Feature", "properties": {"id": "6882", "address_fr": "AVENUE DE FOESTRAETS 5\n1180 UCCLE", "status": "ACTIVE", "ts_sat": null, "ts_week": 780}, "geometry": {"type": "Point", "coordinates": [4.375878, 50.787229]}}, {"type": "Feature", "properties": {"id": "6888", "address_fr": "AVENUE DE FRÉ 94\n1180 UCCLE", "status": "ACTIVE", "ts_sat": null, "ts_week": 780}, "geometry": {"type": "Point", "coordinates": [4.357204, 50.804385]}}, {"type": "Feature", "properties": {"id": "63448", "address_fr": "AVENUE DE HINNISDAEL 8\n1150 WOLUWE-SAINT-PIERRE", "status": "ACTIVE", "ts_sat": null, "ts_week": 780}, "geometry": {"type": "Point", "coordinates": [4.465213, 50.841042]}}, {"type": "Feature", "properties": {"id": "16366", "address_fr": "AVENUE DE KRAAINEM 219\n1200 WOLUWE-SAINT-LAMBERT", "status": "ACTIVE", "ts_sat": null, "ts_week": 780}, "geometry": {"type": "Point", "coordinates": [4.459536, 50.848673]}}, {"type": "Feature", "properties": {"id": "6884", "address_fr": "AVENUE DE L&#39;AIGLON 40\n1180 UCCLE", "status": "ACTIVE", "ts_sat": null, "ts_week": 780}, "geometry": {"type": "Point", "coordinates": [4.36208, 50.783484]}}, {"type": "Feature", "properties": {"id": "6581", "address_fr": "AVENUE DE L&#39;ARBALÈTE 51\n1170 WATERMAEL-BOITSFORT", "status": "ACTIVE", "ts_sat": null, "ts_week": 780}, "geometry": {"type": "Point", "coordinates": [4.405837, 50.799721]}}, {"type": "Feature", "properties": {"id": "10047", "address_fr": "AVENUE DE L&#39;ARBRE BALLON 24\n1090 JETTE", "status": "ACTIVE", "ts_sat": null, "ts_week": 780}, "geometry": {"type": "Point", "coordinates": [4.322222, 50.894006]}}, {"type": "Feature", "properties": {"id": "8523", "address_fr": "AVENUE DE L&#39;ARBRE BALLON 1\n1020 LAEKEN", "status": "ACTIVE", "ts_sat": null, "ts_week": 600}, "geometry": {"type": "Point", "coordinates": [4.32678, 50.893995]}}, {"type": "Feature", "properties": {"id": "8538", "address_fr": "AVENUE DE L&#39;ASTRONOMIE dec/13\n1210 SAINT-JOSSE-TEN-NOODE", "status": "ACTIVE", "ts_sat": null, "ts_week": 780}, "geometry": {"type": "Point", "coordinates": [4.369254, 50.850513]}}, {"type": "Feature", "properties": {"id": "8225", "address_fr": "AVENUE DE L&#39;ATLANTIQUE 38\n1150 WOLUWE-SAINT-PIERRE", "status": "ACTIVE", "ts_sat": null, "ts_week": 780}, "geometry": {"type": "Point", "coordinates": [4.418725, 50.831281]}}, {"type": "Feature", "properties": {"id": "11273", "address_fr": "AVENUE DE L&#39;ATOMIUM 6\n1020 LAEKEN", "status": "ACTIVE", "ts_sat": null, "ts_week": 1140}, "geometry": {"type": "Point", "coordinates": [4.342991, 50.895861]}}, {"type": "Feature", "properties": {"id": "6883", "address_fr": "AVENUE DE L&#39;AULNE 95\n1180 UCCLE", "status": "ACTIVE", "ts_sat": null, "ts_week": 600}, "geometry": {"type": "Point", "coordinates": [4.330908, 50.802105]}}, {"type": "Feature", "properties": {"id": "7821", "address_fr": "AVENUE DE L&#39;EMERAUDE 1/mei\n1030 SCHAERBEEK", "status": "ACTIVE", "ts_sat": null, "ts_week": 600}, "geometry": {"type": "Point", "coordinates": [4.395689, 50.85278]}}, {"type": "Feature", "properties": {"id": "8232", "address_fr": "AVENUE DE L&#39;ESCRIME 2\n1150 WOLUWE-SAINT-PIERRE", "status": "ACTIVE", "ts_sat": null, "ts_week": 780}, "geometry": {"type": "Point", "coordinates": [4.455815, 50.835874]}}, {"type": "Feature", "properties": {"id": "14507", "address_fr": "AVENUE DE L&#39;ESPINETTE 16\n1348 LOUVAIN-LA-NEUVE", "status": "ACTIVE", "ts_sat": null, "ts_week": 600}, "geometry": {"type": "Point", "coordinates": [4.616102, 50.665535]}}, {"type": "Feature", "properties": {"id": "7035", "address_fr": "AVENUE DE L&#39;HÉLIPORT nov/15\n1000 BRUXELLES", "status": "ACTIVE", "ts_sat": null, "ts_week": 600}, "geometry": {"type": "Point", "coordinates": [4.352388, 50.860078]}}, {"type": "Feature", "properties": {"id": "9395", "address_fr": "AVENUE DE L&#39;HIPPODROME 130\n1050 IXELLES", "status": "ACTIVE", "ts_sat": null, "ts_week": 780}, "geometry": {"type": "Point", "coordinates": [4.376859, 50.820681]}}, {"type": "Feature", "properties": {"id": "11305", "address_fr": "AVENUE DE L&#39;IMPRESSIONNISME 1\n1140 EVERE", "status": "ACTIVE", "ts_sat": null, "ts_week": 780}, "geometry": {"type": "Point", "coordinates": [4.408373, 50.87451]}}, {"type": "Feature", "properties": {"id": "6885", "address_fr": "AVENUE DE L&#39;OBSERVATOIRE 1\n1180 UCCLE", "status": "ACTIVE", "ts_sat": null, "ts_week": 780}, "geometry": {"type": "Point", "coordinates": [4.372027, 50.805296]}}, {"type": "Feature", "properties": {"id": "6671", "address_fr": "AVENUE DE L&#39;OPTIMISME 79\n1140 EVERE", "status": "ACTIVE", "ts_sat": null, "ts_week": 780}, "geometry": {"type": "Point", "coordinates": [4.408406, 50.861347]}}, {"type": "Feature", "properties": {"id": "8966", "address_fr": "AVENUE DE L&#39;ORÉE 10\n1000 BRUXELLES", "status": "ACTIVE", "ts_sat": null, "ts_week": 600}, "geometry": {"type": "Point", "coordinates": [4.383666774, 50.80957116]}}, {"type": "Feature", "properties": {"id": "9396", "address_fr": "AVENUE DE L&#39;UNIVERSITÉ 78\n1050 IXELLES", "status": "ACTIVE", "ts_sat": null, "ts_week": 780}, "geometry": {"type": "Point", "coordinates": [4.386116, 50.814266]}}, {"type": "Feature", "properties": {"id": "2679", "address_fr": "AVENUE DE L&#39;YSER 4\n1040 ETTERBEEK", "status": "ACTIVE", "ts_sat": null, "ts_week": 600}, "geometry": {"type": "Point", "coordinates": [4.397551, 50.840243]}}, {"type": "Feature", "properties": {"id": "9648", "address_fr": "AVENUE DE LA BASILIQUE 365\n1081 KOEKELBERG", "status": "ACTIVE", "ts_sat": null, "ts_week": 780}, "geometry": {"type": "Point", "coordinates": [4.31247, 50.865824]}}, {"type": "Feature", "properties": {"id": "7034", "address_fr": "AVENUE DE LA BRABANÇONNE 54\n1000 BRUXELLES", "status": "ACTIVE", "ts_sat": null, "ts_week": 600}, "geometry": {"type": "Point", "coordinates": [4.385585, 50.84938]}}, {"type": "Feature", "properties": {"id": "16365", "address_fr": "AVENUE DE LA BRISE 13-15\n1020 LAEKEN", "status": "ACTIVE", "ts_sat": null, "ts_week": 1020}, "geometry": {"type": "Point", "coordinates": [4.358561, 50.897458]}}, {"type": "Feature", "properties": {"id": "8207", "address_fr": "AVENUE DE LA CHARMILLE 12\n1200 WOLUWE-SAINT-LAMBERT", "status": "ACTIVE", "ts_sat": null, "ts_week": 600}, "geometry": {"type": "Point", "coordinates": [4.431886, 50.853717]}}, {"type": "Feature", "properties": {"id": "2668", "address_fr": "AVENUE DE LA CHASSE 88\n1040 ETTERBEEK", "status": "ACTIVE", "ts_sat": null, "ts_week": 780}, "geometry": {"type": "Point", "coordinates": [4.392126, 50.833141]}}, {"type": "Feature", "properties": {"id": "9408", "address_fr": "AVENUE DE LA COURONNE 88-90\n1050 IXELLES", "status": "ACTIVE", "ts_sat": null, "ts_week": 600}, "geometry": {"type": "Point", "coordinates": [4.378651, 50.830155]}}, {"type": "Feature", "properties": {"id": "9391", "address_fr": "AVENUE DE LA COURONNE 153\n1050 IXELLES", "status": "ACTIVE", "ts_sat": null, "ts_week": 780}, "geometry": {"type": "Point", "coordinates": [4.384149, 50.825566]}}, {"type": "Feature", "properties": {"id": "9393", "address_fr": "AVENUE DE LA COURONNE 588\n1050 IXELLES", "status": "ACTIVE", "ts_sat": null, "ts_week": 600}, "geometry": {"type": "Point", "coordinates": [4.392354, 50.816843]}}, {"type": "Feature", "properties": {"id": "9392", "address_fr": "AVENUE DE LA COURONNE 416\n1050 IXELLES", "status": "ACTIVE", "ts_sat": null, "ts_week": 1020}, "geometry": {"type": "Point", "coordinates": [4.389133, 50.821736]}}, {"type": "Feature", "properties": {"id": "8558", "address_fr": "AVENUE DE LA FAISANDERIE 1\n1332 GENVAL", "status": "ACTIVE", "ts_sat": null, "ts_week": 600}, "geometry": {"type": "Point", "coordinates": [4.499198, 50.728958]}}, {"type": "Feature", "properties": {"id": "6881", "address_fr": "AVENUE DE LA FLORIDE 90\n1180 UCCLE", "status": "ACTIVE", "ts_sat": null, "ts_week": 780}, "geometry": {"type": "Point", "coordinates": [4.36643, 50.806696]}}, {"type": "Feature", "properties": {"id": "8493", "address_fr": "AVENUE DE LA FORÊT 154\n1000 BRUXELLES", "status": "ACTIVE", "ts_sat": null, "ts_week": 780}, "geometry": {"type": "Point", "coordinates": [4.394442, 50.800346]}}, {"type": "Feature", "properties": {"id": "15406", "address_fr": "AVENUE DE LA GARE 1\n1300 LIMAL", "status": "ACTIVE", "ts_sat": null, "ts_week": 780}, "geometry": {"type": "Point", "coordinates": [4.57515, 50.691499]}}, {"type": "Feature", "properties": {"id": "6557", "address_fr": "AVENUE DE LA HOULETTE 76\n1160 AUDERGHEM", "status": "ACTIVE", "ts_sat": null, "ts_week": 780}, "geometry": {"type": "Point", "coordinates": [4.417479, 50.812618]}}, {"type": "Feature", "properties": {"id": "16335", "address_fr": "AVENUE DE LA JONCTION 16\n1060 SAINT-GILLES", "status": "ACTIVE", "ts_sat": null, "ts_week": 780}, "geometry": {"type": "Point", "coordinates": [4.350733, 50.820739]}}, {"type": "Feature", "properties": {"id": "7117", "address_fr": "AVENUE DE LA NIVÉOLE 65\n1020 LAEKEN", "status": "ACTIVE", "ts_sat": null, "ts_week": 600}, "geometry": {"type": "Point", "coordinates": [4.367616, 50.897006]}}, {"type": "Feature", "properties": {"id": "8741", "address_fr": "AVENUE DE LA PERSPECTIVE 47\n1150 WOLUWE-SAINT-PIERRE", "status": "ACTIVE", "ts_sat": null, "ts_week": 780}, "geometry": {"type": "Point", "coordinates": [4.462006, 50.84457]}}, {"type": "Feature", "properties": {"id": "8055", "address_fr": "AVENUE DE LA PORTE DE HAL 1\n1060 SAINT-GILLES", "status": "ACTIVE", "ts_sat": null, "ts_week": 780}, "geometry": {"type": "Point", "coordinates": [4.344706, 50.832456]}}, {"type": "Feature", "properties": {"id": "11309", "address_fr": "AVENUE DE LA SAUVAGINE 1\n1170 WATERMAEL-BOITSFORT", "status": "ACTIVE", "ts_sat": null, "ts_week": 780}, "geometry": {"type": "Point", "coordinates": [4.403411, 50.809871]}}, {"type": "Feature", "properties": {"id": "73888", "address_fr": "AVENUE DE LA TERRE FRANCHE 1\n1325 CHAUMONT-GISTOUX", "status": "ACTIVE", "ts_sat": null, "ts_week": 600}, "geometry": {"type": "Point", "coordinates": [4.706259, 50.678496]}}, {"type": "Feature", "properties": {"id": "9772", "address_fr": "AVENUE DE LA TOISON D&#39;OR 40-42\n1050 IXELLES", "status": "ACTIVE", "ts_sat": null, "ts_week": 780}, "geometry": {"type": "Point", "coordinates": [4.356832, 50.836095]}}, {"type": "Feature", "properties": {"id": "8056", "address_fr": "AVENUE DE LA TOISON D&#39;OR 66\n1060 SAINT-GILLES", "status": "ACTIVE", "ts_sat": null, "ts_week": 780}, "geometry": {"type": "Point", "coordinates": [4.353482, 50.834691]}}, {"type": "Feature", "properties": {"id": "10058", "address_fr": "AVENUE DE LAEKEN 39\n1090 JETTE", "status": "ACTIVE", "ts_sat": null, "ts_week": 780}, "geometry": {"type": "Point", "coordinates": [4.323793, 50.871555]}}, {"type": "Feature", "properties": {"id": "11807", "address_fr": "AVENUE DE LOTHIER 3\n1150 WOLUWE-SAINT-PIERRE", "status": "ACTIVE", "ts_sat": null, "ts_week": 780}, "geometry": {"type": "Point", "coordinates": [4.44156, 50.821059]}}, {"type": "Feature", "properties": {"id": "6886", "address_fr": "AVENUE DE MERCURE 26\n1180 UCCLE", "status": "ACTIVE", "ts_sat": null, "ts_week": 600}, "geometry": {"type": "Point", "coordinates": [4.358441, 50.795049]}}, {"type": "Feature", "properties": {"id": "8270", "address_fr": "AVENUE DE MÉRODE 4\n1300 LIMAL", "status": "ACTIVE", "ts_sat": null, "ts_week": 780}, "geometry": {"type": "Point", "coordinates": [4.549876, 50.712379]}}, {"type": "Feature", "properties": {"id": "6999", "address_fr": "AVENUE DE MONTE CARLO 94\n1190 FOREST", "status": "ACTIVE", "ts_sat": null, "ts_week": 600}, "geometry": {"type": "Point", "coordinates": [4.322672, 50.8113]}}, {"type": "Feature", "properties": {"id": "15403", "address_fr": "AVENUE DE NIVELLES 53\n1300 LIMAL", "status": "ACTIVE", "ts_sat": null, "ts_week": 600}, "geometry": {"type": "Point", "coordinates": [4.556842, 50.704461]}}, {"type": "Feature", "properties": {"id": "13460", "address_fr": "AVENUE DE ROODEBEEK 269\n1030 SCHAERBEEK", "status": "ACTIVE", "ts_sat": null, "ts_week": 600}, "geometry": {"type": "Point", "coordinates": [4.407867, 50.850207]}}, {"type": "Feature", "properties": {"id": "9624", "address_fr": "AVENUE DE ROOVERE 24\n1080 MOLENBEEK-SAINT-JEAN", "status": "ACTIVE", "ts_sat": null, "ts_week": 780}, "geometry": {"type": "Point", "coordinates": [4.320682, 50.848999]}}, {"type": "Feature", "properties": {"id": "8494", "address_fr": "AVENUE DE STALINGRAD 4\n1000 BRUXELLES", "status": "ACTIVE", "ts_sat": null, "ts_week": 780}, "geometry": {"type": "Point", "coordinates": [4.345446, 50.842322]}}, {"type": "Feature", "properties": {"id": "2675", "address_fr": "AVENUE DE TERVUEREN 49\n1040 ETTERBEEK", "status": "ACTIVE", "ts_sat": null, "ts_week": 780}, "geometry": {"type": "Point", "coordinates": [4.400897, 50.838518]}}, {"type": "Feature", "properties": {"id": "2694", "address_fr": "AVENUE DE TERVUEREN 32-34\n1040 ETTERBEEK", "status": "ACTIVE", "ts_sat": null, "ts_week": 1020}, "geometry": {"type": "Point", "coordinates": [4.4008966, 50.8385176]}}, {"type": "Feature", "properties": {"id": "16412", "address_fr": "AVENUE DE TERVUEREN 270-272\n1150 WOLUWE-SAINT-PIERRE", "status": "ACTIVE", "ts_sat": null, "ts_week": 600}, "geometry": {"type": "Point", "coordinates": [4.421061, 50.83494]}}, {"type": "Feature", "properties": {"id": "8227", "address_fr": "AVENUE DE TERVUEREN 433\n1150 WOLUWE-SAINT-PIERRE", "status": "ACTIVE", "ts_sat": null, "ts_week": 780}, "geometry": {"type": "Point", "coordinates": [4.446114, 50.824619]}}, {"type": "Feature", "properties": {"id": "8226", "address_fr": "AVENUE DE TERVUEREN 137\n1150 WOLUWE-SAINT-PIERRE", "status": "ACTIVE", "ts_sat": null, "ts_week": 600}, "geometry": {"type": "Point", "coordinates": [4.40529, 50.837645]}}, {"type": "Feature", "properties": {"id": "43103", "address_fr": "AVENUE DE TERVUEREN 332\n1150 WOLUWE-SAINT-PIERRE", "status": "ACTIVE", "ts_sat": null, "ts_week": 600}, "geometry": {"type": "Point", "coordinates": [4.43119, 50.834048]}}, {"type": "Feature", "properties": {"id": "7118", "address_fr": "AVENUE DE VERSAILLES 131\n1120 NEDER-OVER-HEEMBEEK", "status": "ACTIVE", "ts_sat": null, "ts_week": 780}, "geometry": {"type": "Point", "coordinates": [4.374045, 50.896351]}}, {"type": "Feature", "properties": {"id": "8208", "address_fr": "AVENUE DE WOLUWE-SAINT-LAMBERT 2\n1200 WOLUWE-SAINT-LAMBERT", "status": "ACTIVE", "ts_sat": null, "ts_week": 600}, "geometry": {"type": "Point", "coordinates": [4.412055, 50.840263]}}, {"type": "Feature", "properties": {"id": "6558", "address_fr": "AVENUE DES ABLETTES 28\n1160 AUDERGHEM", "status": "ACTIVE", "ts_sat": null, "ts_week": 600}, "geometry": {"type": "Point", "coordinates": [4.407692, 50.813716]}}, {"type": "Feature", "properties": {"id": "31243", "address_fr": "AVENUE DES ANCIENS COMBATTANTS 90A\n1140 EVERE", "status": "ACTIVE", "ts_sat": null, "ts_week": 600}, "geometry": {"type": "Point", "coordinates": [4.410751, 50.863372]}}, {"type": "Feature", "properties": {"id": "2677", "address_fr": "AVENUE DES ARTS 31\n1000 BRUXELLES", "status": "ACTIVE", "ts_sat": null, "ts_week": 780}, "geometry": {"type": "Point", "coordinates": [4.368152, 50.8442]}}, {"type": "Feature", "properties": {"id": "2678", "address_fr": "AVENUE DES ARTS 31\n1000 BRUXELLES", "status": "ACTIVE", "ts_sat": null, "ts_week": 780}, "geometry": {"type": "Point", "coordinates": [4.368152, 50.8442]}}, {"type": "Feature", "properties": {"id": "8445", "address_fr": "AVENUE DES CAPUCINES 4\n1030 SCHAERBEEK", "status": "ACTIVE", "ts_sat": null, "ts_week": 600}, "geometry": {"type": "Point", "coordinates": [4.385818, 50.865091]}}, {"type": "Feature", "properties": {"id": "7667", "address_fr": "AVENUE DES CERISIERS 78\n1030 SCHAERBEEK", "status": "ACTIVE", "ts_sat": null, "ts_week": 780}, "geometry": {"type": "Point", "coordinates": [4.408069, 50.848117]}}, {"type": "Feature", "properties": {"id": "7668", "address_fr": "AVENUE DES CLOS 1\n1030 SCHAERBEEK", "status": "ACTIVE", "ts_sat": null, "ts_week": 780}, "geometry": {"type": "Point", "coordinates": [4.401071, 50.860908]}}, {"type": "Feature", "properties": {"id": "6579", "address_fr": "AVENUE DES COCCINELLES 77\n1170 WATERMAEL-BOITSFORT", "status": "ACTIVE", "ts_sat": null, "ts_week": 780}, "geometry": {"type": "Point", "coordinates": [4.401846, 50.798029]}}, {"type": "Feature", "properties": {"id": "14049", "address_fr": "AVENUE DES COMBATTANTS 193\n1332 GENVAL", "status": "ACTIVE", "ts_sat": null, "ts_week": 600}, "geometry": {"type": "Point", "coordinates": [4.509397, 50.721743]}}, {"type": "Feature", "properties": {"id": "8574", "address_fr": "AVENUE DES COMMANDANTS BORLÉE 42\n1370 JODOIGNE", "status": "ACTIVE", "ts_sat": null, "ts_week": 1020}, "geometry": {"type": "Point", "coordinates": [4.874008, 50.722271]}}, {"type": "Feature", "properties": {"id": "10880", "address_fr": "AVENUE DES COMMUNAUTÉS 101-103\n1200 WOLUWE-SAINT-LAMBERT", "status": "ACTIVE", "ts_sat": null, "ts_week": 780}, "geometry": {"type": "Point", "coordinates": [4.42668, 50.856574]}}, {"type": "Feature", "properties": {"id": "8209", "address_fr": "AVENUE DES CONSTELLATIONS 22\n1200 WOLUWE-SAINT-LAMBERT", "status": "ACTIVE", "ts_sat": null, "ts_week": 600}, "geometry": {"type": "Point", "coordinates": [4.415887, 50.851643]}}, {"type": "Feature", "properties": {"id": "89128", "address_fr": "AVENUE DES COURSES 4\n1050 IXELLES", "status": "ACTIVE", "ts_sat": null, "ts_week": 600}, "geometry": {"type": "Point", "coordinates": [4.378234, 50.815992]}}, {"type": "Feature", "properties": {"id": "8293", "address_fr": "AVENUE DES DÉPORTÉS 48\n1367 GEEST-GÉROMPONT-PETIT-ROSIÈRE", "status": "ACTIVE", "ts_sat": null, "ts_week": 600}, "geometry": {"type": "Point", "coordinates": [4.870891, 50.644329]}}, {"type": "Feature", "properties": {"id": "8210", "address_fr": "AVENUE DES DEUX TILLEULS 2\n1200 WOLUWE-SAINT-LAMBERT", "status": "ACTIVE", "ts_sat": null, "ts_week": 600}, "geometry": {"type": "Point", "coordinates": [4.404745, 50.839548]}}, {"type": "Feature", "properties": {"id": "11311", "address_fr": "AVENUE DES DRYADES 28\n1170 WATERMAEL-BOITSFORT", "status": "ACTIVE", "ts_sat": null, "ts_week": 600}, "geometry": {"type": "Point", "coordinates": [4.415248, 50.804039]}}, {"type": "Feature", "properties": {"id": "7516", "address_fr": "AVENUE DES EGLANTIERS 21\n1180 UCCLE", "status": "ACTIVE", "ts_sat": null, "ts_week": 600}, "geometry": {"type": "Point", "coordinates": [4.37187, 50.782767]}}, {"type": "Feature", "properties": {"id": "10387", "address_fr": "AVENUE DES FRÈRES GOEMAERE 52\n1160 AUDERGHEM", "status": "ACTIVE", "ts_sat": null, "ts_week": 780}, "geometry": {"type": "Point", "coordinates": [4.436433, 50.809842]}}, {"type": "Feature", "properties": {"id": "16784", "address_fr": "AVENUE DES FRÈRES LEGRAIN 82\n1150 WOLUWE-SAINT-PIERRE", "status": "ACTIVE", "ts_sat": null, "ts_week": 780}, "geometry": {"type": "Point", "coordinates": [4.412739, 50.826054]}}, {"type": "Feature", "properties": {"id": "9664", "address_fr": "AVENUE DES GLOIRES NATIONALES 29\n1083 GANSHOREN", "status": "ACTIVE", "ts_sat": null, "ts_week": 780}, "geometry": {"type": "Point", "coordinates": [4.324154, 50.866116]}}, {"type": "Feature", "properties": {"id": "8228", "address_fr": "AVENUE DES GRANDS PRIX 140\n1150 WOLUWE-SAINT-PIERRE", "status": "ACTIVE", "ts_sat": null, "ts_week": 600}, "geometry": {"type": "Point", "coordinates": [4.461466, 50.831428]}}, {"type": "Feature", "properties": {"id": "6582", "address_fr": "AVENUE DES HANNETONS 41\n1170 WATERMAEL-BOITSFORT", "status": "ACTIVE", "ts_sat": null, "ts_week": 780}, "geometry": {"type": "Point", "coordinates": [4.411735, 50.810151]}}, {"type": "Feature", "properties": {"id": "7687", "address_fr": "AVENUE DES HOSPICES 7\n1180 UCCLE", "status": "ACTIVE", "ts_sat": null, "ts_week": 780}, "geometry": {"type": "Point", "coordinates": [4.354105, 50.777774]}}, {"type": "Feature", "properties": {"id": "56390", "address_fr": "AVENUE DES IMMORTELLES 3\n1070 ANDERLECHT", "status": "ACTIVE", "ts_sat": null, "ts_week": 780}, "geometry": {"type": "Point", "coordinates": [4.282355, 50.816723]}}, {"type": "Feature", "properties": {"id": "7822", "address_fr": "AVENUE DES JACINTHES 19\n1030 SCHAERBEEK", "status": "ACTIVE", "ts_sat": null, "ts_week": 780}, "geometry": {"type": "Point", "coordinates": [4.389367, 50.863055]}}, {"type": "Feature", "properties": {"id": "6402", "address_fr": "AVENUE DES LOISIRS 9\n1140 EVERE", "status": "ACTIVE", "ts_sat": null, "ts_week": 780}, "geometry": {"type": "Point", "coordinates": [4.404599, 50.866971]}}, {"type": "Feature", "properties": {"id": "8524", "address_fr": "AVENUE DES MAGNOLIAS 28\n1020 LAEKEN", "status": "ACTIVE", "ts_sat": null, "ts_week": 780}, "geometry": {"type": "Point", "coordinates": [4.33099, 50.900522]}}, {"type": "Feature", "properties": {"id": "9262", "address_fr": "AVENUE DES MESPELIERS 1\n1348 LOUVAIN-LA-NEUVE", "status": "ACTIVE", "ts_sat": null, "ts_week": 600}, "geometry": {"type": "Point", "coordinates": [4.616419, 50.674662]}}, {"type": "Feature", "properties": {"id": "7698", "address_fr": "AVENUE DES MISSIONNAIRES 52\n1070 ANDERLECHT", "status": "ACTIVE", "ts_sat": null, "ts_week": 780}, "geometry": {"type": "Point", "coordinates": [4.307192, 50.849543]}}, {"type": "Feature", "properties": {"id": "2642", "address_fr": "AVENUE DES NERVIENS sep/31\n1040 ETTERBEEK", "status": "ACTIVE", "ts_sat": null, "ts_week": 780}, "geometry": {"type": "Point", "coordinates": [4.385787, 50.839447]}}, {"type": "Feature", "properties": {"id": "6583", "address_fr": "AVENUE DES ORTOLANS 1\n1170 WATERMAEL-BOITSFORT", "status": "ACTIVE", "ts_sat": null, "ts_week": 780}, "geometry": {"type": "Point", "coordinates": [4.41302, 50.802757]}}, {"type": "Feature", "properties": {"id": "7119", "address_fr": "AVENUE DES PAGODES 146\n1020 LAEKEN", "status": "ACTIVE", "ts_sat": null, "ts_week": 780}, "geometry": {"type": "Point", "coordinates": [4.371598, 50.89235]}}, {"type": "Feature", "properties": {"id": "7120", "address_fr": "AVENUE DES PAGODES 343\n1020 LAEKEN", "status": "ACTIVE", "ts_sat": null, "ts_week": 780}, "geometry": {"type": "Point", "coordinates": [4.363022, 50.89599]}}, {"type": "Feature", "properties": {"id": "8211", "address_fr": "AVENUE DES PLÉIADES 54\n1200 WOLUWE-SAINT-LAMBERT", "status": "ACTIVE", "ts_sat": null, "ts_week": 600}, "geometry": {"type": "Point", "coordinates": [4.420546, 50.854697]}}, {"type": "Feature", "properties": {"id": "11321", "address_fr": "AVENUE DES PLÉIADES 59\n1300 LIMAL", "status": "ACTIVE", "ts_sat": null, "ts_week": 600}, "geometry": {"type": "Point", "coordinates": [4.561419, 50.709334]}}, {"type": "Feature", "properties": {"id": "14052", "address_fr": "AVENUE DES ROSSIGNOLS 2\n1341 CÉROUX-MOUSTY", "status": "ACTIVE", "ts_sat": null, "ts_week": 600}, "geometry": {"type": "Point", "coordinates": [4.546083, 50.650399]}}, {"type": "Feature", "properties": {"id": "9863", "address_fr": "AVENUE DES SAISONS 127\n1050 IXELLES", "status": "ACTIVE", "ts_sat": null, "ts_week": 780}, "geometry": {"type": "Point", "coordinates": [4.388337, 50.81762]}}, {"type": "Feature", "properties": {"id": "8401", "address_fr": "AVENUE DES SEPT BONNIERS 227\n1190 FOREST", "status": "ACTIVE", "ts_sat": null, "ts_week": 780}, "geometry": {"type": "Point", "coordinates": [4.331349, 50.808759]}}, {"type": "Feature", "properties": {"id": "6921", "address_fr": "AVENUE DES TILLEULS 24\n1180 UCCLE", "status": "ACTIVE", "ts_sat": null, "ts_week": 780}, "geometry": {"type": "Point", "coordinates": [4.338781, 50.776796]}}, {"type": "Feature", "properties": {"id": "47543", "address_fr": "AVENUE DES TOURTERELLES 18\n1360 PERWEZ", "status": "ACTIVE", "ts_sat": null, "ts_week": 600}, "geometry": {"type": "Point", "coordinates": [4.809032, 50.623052]}}, {"type": "Feature", "properties": {"id": "8057", "address_fr": "AVENUE DES VILLAS 4A\n1060 SAINT-GILLES", "status": "ACTIVE", "ts_sat": null, "ts_week": 780}, "geometry": {"type": "Point", "coordinates": [4.343063, 50.824824]}}, {"type": "Feature", "properties": {"id": "16982", "address_fr": "AVENUE DES VILLAS 14\n1340 OTTIGNIES", "status": "ACTIVE", "ts_sat": null, "ts_week": 600}, "geometry": {"type": "Point", "coordinates": [4.567699, 50.670633]}}, {"type": "Feature", "properties": {"id": "8436", "address_fr": "AVENUE DES VOLONTAIRES 165\n1150 WOLUWE-SAINT-PIERRE", "status": "ACTIVE", "ts_sat": null, "ts_week": 600}, "geometry": {"type": "Point", "coordinates": [4.405578, 50.827527]}}, {"type": "Feature", "properties": {"id": "6550", "address_fr": "AVENUE DES VOLONTAIRES 79\n1160 AUDERGHEM", "status": "ACTIVE", "ts_sat": null, "ts_week": 600}, "geometry": {"type": "Point", "coordinates": [4.4025, 50.826174]}}, {"type": "Feature", "properties": {"id": "7836", "address_fr": "AVENUE DOCTEUR DEJASE 22\n1030 SCHAERBEEK", "status": "ACTIVE", "ts_sat": null, "ts_week": 780}, "geometry": {"type": "Point", "coordinates": [4.389452, 50.869194]}}, {"type": "Feature", "properties": {"id": "7722", "address_fr": "AVENUE DOCTEUR ZAMENHOF 35\n1070 ANDERLECHT", "status": "ACTIVE", "ts_sat": null, "ts_week": 600}, "geometry": {"type": "Point", "coordinates": [4.305674, 50.828093]}}, {"type": "Feature", "properties": {"id": "6922", "address_fr": "AVENUE DOLEZ 136\n1180 UCCLE", "status": "ACTIVE", "ts_sat": null, "ts_week": 780}, "geometry": {"type": "Point", "coordinates": [4.359088, 50.788171]}}, {"type": "Feature", "properties": {"id": "53103", "address_fr": "AVENUE DROITS DE L&#39;HOMME 1\n1070 ANDERLECHT", "status": "ACTIVE", "ts_sat": null, "ts_week": 780}, "geometry": {"type": "Point", "coordinates": [4.29384, 50.820778]}}, {"type": "Feature", "properties": {"id": "8496", "address_fr": "AVENUE DU BRÉSIL 2\n1000 BRUXELLES", "status": "ACTIVE", "ts_sat": null, "ts_week": 780}, "geometry": {"type": "Point", "coordinates": [4.389093, 50.802764]}}, {"type": "Feature", "properties": {"id": "11312", "address_fr": "AVENUE DU CERF-VOLANT 1\n1170 WATERMAEL-BOITSFORT", "status": "ACTIVE", "ts_sat": null, "ts_week": 600}, "geometry": {"type": "Point", "coordinates": [4.409131, 50.804337]}}, {"type": "Feature", "properties": {"id": "8240", "address_fr": "AVENUE DU CHANT D&#39;OISEAU 2\n1150 WOLUWE-SAINT-PIERRE", "status": "ACTIVE", "ts_sat": null, "ts_week": 780}, "geometry": {"type": "Point", "coordinates": [4.418076, 50.826824]}}, {"type": "Feature", "properties": {"id": "6404", "address_fr": "AVENUE DU CIMETIÈRE DE BRUXELLES 35\n1140 EVERE", "status": "ACTIVE", "ts_sat": null, "ts_week": 780}, "geometry": {"type": "Point", "coordinates": [4.415013, 50.859947]}}, {"type": "Feature", "properties": {"id": "7823", "address_fr": "AVENUE DU DIAMANT 199\n1030 SCHAERBEEK", "status": "ACTIVE", "ts_sat": null, "ts_week": 780}, "geometry": {"type": "Point", "coordinates": [4.401715, 50.84936]}}, {"type": "Feature", "properties": {"id": "7669", "address_fr": "AVENUE DU DIAMANT 149\n1030 SCHAERBEEK", "status": "ACTIVE", "ts_sat": null, "ts_week": 600}, "geometry": {"type": "Point", "coordinates": [4.398696, 50.850063]}}, {"type": "Feature", "properties": {"id": "16661", "address_fr": "AVENUE DU DOMAINE 167-169\n1190 FOREST", "status": "ACTIVE", "ts_sat": null, "ts_week": 780}, "geometry": {"type": "Point", "coordinates": [4.329444, 50.812522]}}, {"type": "Feature", "properties": {"id": "6559", "address_fr": "AVENUE DU GARDON 1\n1160 AUDERGHEM", "status": "ACTIVE", "ts_sat": null, "ts_week": 600}, "geometry": {"type": "Point", "coordinates": [4.409466, 50.81254]}}, {"type": "Feature", "properties": {"id": "9412", "address_fr": "AVENUE DU GÉNÉRAL DE GAULLE 60\n1050 IXELLES", "status": "ACTIVE", "ts_sat": null, "ts_week": 780}, "geometry": {"type": "Point", "coordinates": [4.373246, 50.820624]}}, {"type": "Feature", "properties": {"id": "9411", "address_fr": "AVENUE DU GÉNÉRAL DE GAULLE 26\n1050 IXELLES", "status": "ACTIVE", "ts_sat": null, "ts_week": 780}, "geometry": {"type": "Point", "coordinates": [4.371179, 50.825446]}}, {"type": "Feature", "properties": {"id": "16660", "address_fr": "AVENUE DU GLOBE 57\n1190 FOREST", "status": "ACTIVE", "ts_sat": null, "ts_week": 600}, "geometry": {"type": "Point", "coordinates": [4.326507, 50.807244]}}, {"type": "Feature", "properties": {"id": "8485", "address_fr": "AVENUE DU HAUT-PONT 8\n1060 SAINT-GILLES", "status": "ACTIVE", "ts_sat": null, "ts_week": 600}, "geometry": {"type": "Point", "coordinates": [4.352955, 50.820857]}}, {"type": "Feature", "properties": {"id": "89410", "address_fr": "AVENUE DU HOUX 38\n1170 WATERMAEL-BOITSFORT", "status": "ACTIVE", "ts_sat": null, "ts_week": 600}, "geometry": {"type": "Point", "coordinates": [4.423419, 50.804587]}}, {"type": "Feature", "properties": {"id": "9626", "address_fr": "AVENUE DU KARREVELD 5\n1080 MOLENBEEK-SAINT-JEAN", "status": "ACTIVE", "ts_sat": null, "ts_week": 780}, "geometry": {"type": "Point", "coordinates": [4.318578, 50.858141]}}, {"type": "Feature", "properties": {"id": "9625", "address_fr": "AVENUE DU KARREVELD 46\n1080 MOLENBEEK-SAINT-JEAN", "status": "ACTIVE", "ts_sat": null, "ts_week": 780}, "geometry": {"type": "Point", "coordinates": [4.317169, 50.861176]}}, {"type": "Feature", "properties": {"id": "9669", "address_fr": "AVENUE DU LAERBEEK 107\n1090 JETTE", "status": "ACTIVE", "ts_sat": null, "ts_week": 600}, "geometry": {"type": "Point", "coordinates": [4.308404, 50.883946]}}, {"type": "Feature", "properties": {"id": "10048", "address_fr": "AVENUE DU LAERBEEK 101\n1090 JETTE", "status": "ACTIVE", "ts_sat": null, "ts_week": 780}, "geometry": {"type": "Point", "coordinates": [4.310629, 50.885929]}}, {"type": "Feature", "properties": {"id": "8425", "address_fr": "AVENUE DU MARLY 48\n1120 NEDER-OVER-HEEMBEEK", "status": "ACTIVE", "ts_sat": null, "ts_week": 600}, "geometry": {"type": "Point", "coordinates": [4.401769, 50.898463]}}, {"type": "Feature", "properties": {"id": "9994", "address_fr": "AVENUE DU PANTHÉON 31\n1081 KOEKELBERG", "status": "ACTIVE", "ts_sat": null, "ts_week": 600}, "geometry": {"type": "Point", "coordinates": [4.322935, 50.864259]}}, {"type": "Feature", "properties": {"id": "8525", "address_fr": "AVENUE DU PARC ROYAL 65\n1020 LAEKEN", "status": "ACTIVE", "ts_sat": null, "ts_week": 600}, "geometry": {"type": "Point", "coordinates": [4.356595, 50.888778]}}, {"type": "Feature", "properties": {"id": "16666", "address_fr": "AVENUE DU PÉROU 65\n1000 BRUXELLES", "status": "ACTIVE", "ts_sat": null, "ts_week": 600}, "geometry": {"type": "Point", "coordinates": [4.397837, 50.798429]}}, {"type": "Feature", "properties": {"id": "7039", "address_fr": "AVENUE DU PORT 108-110\n1000 BRUXELLES", "status": "ACTIVE", "ts_sat": null, "ts_week": 780}, "geometry": {"type": "Point", "coordinates": [4.353236, 50.868759]}}, {"type": "Feature", "properties": {"id": "6923", "address_fr": "AVENUE DU PRINCE D&#39;ORANGE 6\n1180 UCCLE", "status": "ACTIVE", "ts_sat": null, "ts_week": 780}, "geometry": {"type": "Point", "coordinates": [4.380123, 50.78056]}}, {"type": "Feature", "properties": {"id": "9654", "address_fr": "AVENUE DU ROI ALBERT 78\n1082 BERCHEM-SAINTE-AGATHE", "status": "ACTIVE", "ts_sat": null, "ts_week": 780}, "geometry": {"type": "Point", "coordinates": [4.2926, 50.865343]}}, {"type": "Feature", "properties": {"id": "9653", "address_fr": "AVENUE DU ROI ALBERT 272\n1082 BERCHEM-SAINTE-AGATHE", "status": "ACTIVE", "ts_sat": null, "ts_week": 780}, "geometry": {"type": "Point", "coordinates": [4.28212, 50.866942]}}, {"type": "Feature", "properties": {"id": "7699", "address_fr": "AVENUE DU ROI SOLDAT 73\n1070 ANDERLECHT", "status": "ACTIVE", "ts_sat": null, "ts_week": 780}, "geometry": {"type": "Point", "coordinates": [4.297285, 50.830617]}}, {"type": "Feature", "properties": {"id": "9687", "address_fr": "AVENUE DU SACRÉ COEUR 2\n1090 JETTE", "status": "ACTIVE", "ts_sat": null, "ts_week": 600}, "geometry": {"type": "Point", "coordinates": [4.330706, 50.882788]}}, {"type": "Feature", "properties": {"id": "7700", "address_fr": "AVENUE DU SOLDAT BRITANNIQUE 1\n1070 ANDERLECHT", "status": "ACTIVE", "ts_sat": null, "ts_week": 780}, "geometry": {"type": "Point", "coordinates": [4.281501, 50.814353]}}, {"type": "Feature", "properties": {"id": "8059", "address_fr": "AVENUE DUCPÉTIAUX 135\n1060 SAINT-GILLES", "status": "ACTIVE", "ts_sat": null, "ts_week": 780}, "geometry": {"type": "Point", "coordinates": [4.344676, 50.822142]}}, {"type": "Feature", "properties": {"id": "8058", "address_fr": "AVENUE DUCPÉTIAUX 55\n1060 SAINT-GILLES", "status": "ACTIVE", "ts_sat": null, "ts_week": 600}, "geometry": {"type": "Point", "coordinates": [4.350933, 50.823373]}}, {"type": "Feature", "properties": {"id": "2666", "address_fr": "AVENUE EDMOND MESENS 2\n1040 ETTERBEEK", "status": "ACTIVE", "ts_sat": null, "ts_week": 600}, "geometry": {"type": "Point", "coordinates": [4.406975, 50.831749]}}, {"type": "Feature", "properties": {"id": "2690", "address_fr": "AVENUE EDMOND MESENS 72\n1040 ETTERBEEK", "status": "ACTIVE", "ts_sat": null, "ts_week": 600}, "geometry": {"type": "Point", "coordinates": [4.408181, 50.829993]}}, {"type": "Feature", "properties": {"id": "11806", "address_fr": "AVENUE EDMOND PARMENTIER 120\n1150 WOLUWE-SAINT-PIERRE", "status": "ACTIVE", "ts_sat": null, "ts_week": 780}, "geometry": {"type": "Point", "coordinates": [4.443564, 50.831591]}}, {"type": "Feature", "properties": {"id": "8241", "address_fr": "AVENUE EDMOND PARMENTIER 18\n1150 WOLUWE-SAINT-PIERRE", "status": "ACTIVE", "ts_sat": null, "ts_week": 780}, "geometry": {"type": "Point", "coordinates": [4.436659, 50.831524]}}, {"type": "Feature", "properties": {"id": "9864", "address_fr": "AVENUE EMILE DE BECO 29-35\n1050 IXELLES", "status": "ACTIVE", "ts_sat": null, "ts_week": 600}, "geometry": {"type": "Point", "coordinates": [4.381425, 50.822871]}}, {"type": "Feature", "properties": {"id": "8447", "address_fr": "AVENUE EMILE MAX 172\n1030 SCHAERBEEK", "status": "ACTIVE", "ts_sat": null, "ts_week": 600}, "geometry": {"type": "Point", "coordinates": [4.39975071, 50.85180283]}}, {"type": "Feature", "properties": {"id": "7824", "address_fr": "AVENUE EMILE VERHAEREN 82\n1030 SCHAERBEEK", "status": "ACTIVE", "ts_sat": null, "ts_week": 780}, "geometry": {"type": "Point", "coordinates": [4.382454, 50.874116]}}, {"type": "Feature", "properties": {"id": "8235", "address_fr": "AVENUE EMMANUEL MOUNIER 10\n1200 WOLUWE-SAINT-LAMBERT", "status": "ACTIVE", "ts_sat": null, "ts_week": 600}, "geometry": {"type": "Point", "coordinates": [4.449671, 50.851649]}}, {"type": "Feature", "properties": {"id": "12631", "address_fr": "AVENUE ERNEST SOLVAY 53\n1310 LA HULPE", "status": "ACTIVE", "ts_sat": null, "ts_week": 600}, "geometry": {"type": "Point", "coordinates": [4.482286, 50.740764]}}, {"type": "Feature", "properties": {"id": "7834", "address_fr": "AVENUE EUGÈNE PLASKY 191\n1030 SCHAERBEEK", "status": "ACTIVE", "ts_sat": null, "ts_week": 780}, "geometry": {"type": "Point", "coordinates": [4.397988, 50.853918]}}, {"type": "Feature", "properties": {"id": "8267", "address_fr": "AVENUE FLEMING 2\n1300 WAVRE", "status": "ACTIVE", "ts_sat": null, "ts_week": 1020}, "geometry": {"type": "Point", "coordinates": [4.603269, 50.736428]}}, {"type": "Feature", "properties": {"id": "8495", "address_fr": "AVENUE FONSNY 47\n1060 SAINT-GILLES", "status": "ACTIVE", "ts_sat": null, "ts_week": 780}, "geometry": {"type": "Point", "coordinates": [4.338213, 50.836042]}}, {"type": "Feature", "properties": {"id": "11808", "address_fr": "AVENUE FRANÇOIS ELIE VAN ELDEREN 6\n1160 AUDERGHEM", "status": "ACTIVE", "ts_sat": null, "ts_week": 600}, "geometry": {"type": "Point", "coordinates": [4.436895, 50.812373]}}, {"type": "Feature", "properties": {"id": "8437", "address_fr": "AVENUE FRANÇOIS PEETERS 18\n1150 WOLUWE-SAINT-PIERRE", "status": "ACTIVE", "ts_sat": null, "ts_week": 780}, "geometry": {"type": "Point", "coordinates": [4.464312, 50.837633]}}, {"type": "Feature", "properties": {"id": "8548", "address_fr": "AVENUE FRANKLIN 1\n1300 WAVRE", "status": "ACTIVE", "ts_sat": null, "ts_week": 1020}, "geometry": {"type": "Point", "coordinates": [4.585453, 50.735654]}}, {"type": "Feature", "properties": {"id": "8234", "address_fr": "AVENUE FRANS VAN KALKEN 5\n1070 ANDERLECHT", "status": "ACTIVE", "ts_sat": null, "ts_week": 600}, "geometry": {"type": "Point", "coordinates": [4.304793, 50.826637]}}, {"type": "Feature", "properties": {"id": "6562", "address_fr": "AVENUE GABRIEL EMILE LEBON 84\n1160 AUDERGHEM", "status": "ACTIVE", "ts_sat": null, "ts_week": 780}, "geometry": {"type": "Point", "coordinates": [4.408674, 50.823578]}}, {"type": "Feature", "properties": {"id": "9409", "address_fr": "AVENUE GÉNÉRAL DOSSIN DE SAINT-GEORGES 22\n1050 IXELLES", "status": "ACTIVE", "ts_sat": null, "ts_week": 780}, "geometry": {"type": "Point", "coordinates": [4.389081, 50.810053]}}, {"type": "Feature", "properties": {"id": "89368", "address_fr": "AVENUE GÉNÉRAL MÉDECIN DERACHE 2\n1050 IXELLES", "status": "ACTIVE", "ts_sat": null, "ts_week": 780}, "geometry": {"type": "Point", "coordinates": [4.385513, 50.817565]}}, {"type": "Feature", "properties": {"id": "8428", "address_fr": "AVENUE GEORGES HENRI 251B\n1200 WOLUWE-SAINT-LAMBERT", "status": "ACTIVE", "ts_sat": null, "ts_week": 600}, "geometry": {"type": "Point", "coordinates": [4.414845, 50.844334]}}, {"type": "Feature", "properties": {"id": "41443", "address_fr": "AVENUE GEORGES HENRI 330\n1200 WOLUWE-SAINT-LAMBERT", "status": "ACTIVE", "ts_sat": null, "ts_week": 600}, "geometry": {"type": "Point", "coordinates": [4.409499, 50.843103]}}, {"type": "Feature", "properties": {"id": "8212", "address_fr": "AVENUE GEORGES HENRI 400\n1200 WOLUWE-SAINT-LAMBERT", "status": "ACTIVE", "ts_sat": null, "ts_week": 780}, "geometry": {"type": "Point", "coordinates": [4.405734, 50.84223]}}, {"type": "Feature", "properties": {"id": "8738", "address_fr": "AVENUE GEORGES HENRI 166\n1200 WOLUWE-SAINT-LAMBERT", "status": "ACTIVE", "ts_sat": null, "ts_week": 780}, "geometry": {"type": "Point", "coordinates": [4.417217, 50.844999]}}, {"type": "Feature", "properties": {"id": "61248", "address_fr": "AVENUE GEORGES LEMAÎTRE 5\n1348 LOUVAIN-LA-NEUVE", "status": "ACTIVE", "ts_sat": null, "ts_week": 600}, "geometry": {"type": "Point", "coordinates": [4.620693, 50.669691]}}, {"type": "Feature", "properties": {"id": "11340", "address_fr": "AVENUE GEVAERT 145\n1332 GENVAL", "status": "ACTIVE", "ts_sat": null, "ts_week": 600}, "geometry": {"type": "Point", "coordinates": [4.503624, 50.723605]}}, {"type": "Feature", "properties": {"id": "7701", "address_fr": "AVENUE GOUNOD 65\n1070 ANDERLECHT", "status": "ACTIVE", "ts_sat": null, "ts_week": 780}, "geometry": {"type": "Point", "coordinates": [4.301088, 50.830418]}}, {"type": "Feature", "properties": {"id": "32163", "address_fr": "AVENUE GRANDCHAMP 28\n1150 WOLUWE-SAINT-PIERRE", "status": "ACTIVE", "ts_sat": null, "ts_week": 600}, "geometry": {"type": "Point", "coordinates": [4.448536, 50.834233]}}, {"type": "Feature", "properties": {"id": "7694", "address_fr": "AVENUE GUILLAUME HERINCKX 119\n1180 UCCLE", "status": "ACTIVE", "ts_sat": null, "ts_week": 600}, "geometry": {"type": "Point", "coordinates": [4.32994, 50.796895]}}, {"type": "Feature", "properties": {"id": "11809", "address_fr": "AVENUE GUILLAUME VAN NEROM 32\n1160 AUDERGHEM", "status": "ACTIVE", "ts_sat": null, "ts_week": 600}, "geometry": {"type": "Point", "coordinates": [4.431262, 50.807194]}}, {"type": "Feature", "properties": {"id": "8449", "address_fr": "AVENUE GUSTAVE LATINIS 241\n1030 SCHAERBEEK", "status": "ACTIVE", "ts_sat": null, "ts_week": 780}, "geometry": {"type": "Point", "coordinates": [4.392291, 50.861111]}}, {"type": "Feature", "properties": {"id": "15819", "address_fr": "AVENUE HAMOIR 42\n1180 UCCLE", "status": "ACTIVE", "ts_sat": null, "ts_week": 780}, "geometry": {"type": "Point", "coordinates": [4.364208, 50.799005]}}, {"type": "Feature", "properties": {"id": "6406", "address_fr": "AVENUE HENRI CONSCIENCE 156\n1140 EVERE", "status": "ACTIVE", "ts_sat": null, "ts_week": 780}, "geometry": {"type": "Point", "coordinates": [4.40029, 50.871064]}}, {"type": "Feature", "properties": {"id": "15866", "address_fr": "AVENUE HENRI LEPAGE 4/jun\n1300 WAVRE", "status": "ACTIVE", "ts_sat": null, "ts_week": 780}, "geometry": {"type": "Point", "coordinates": [4.608588, 50.719438]}}, {"type": "Feature", "properties": {"id": "97028", "address_fr": "AVENUE HENRI LIEBRECHT 66\n1090 JETTE", "status": "ACTIVE", "ts_sat": null, "ts_week": 780}, "geometry": {"type": "Point", "coordinates": [4.318296, 50.889512]}}, {"type": "Feature", "properties": {"id": "12730", "address_fr": "AVENUE HENRI PIRARD 15\n1350 ORP-LE-GRAND", "status": "ACTIVE", "ts_sat": null, "ts_week": 600}, "geometry": {"type": "Point", "coordinates": [4.997405, 50.71363]}}, {"type": "Feature", "properties": {"id": "6563", "address_fr": "AVENUE HERRMANN DEBROUX 1\n1160 AUDERGHEM", "status": "ACTIVE", "ts_sat": null, "ts_week": 600}, "geometry": {"type": "Point", "coordinates": [4.428018, 50.8121]}}, {"type": "Feature", "properties": {"id": "8432", "address_fr": "AVENUE HEYDENBERG 81\n1200 WOLUWE-SAINT-LAMBERT", "status": "ACTIVE", "ts_sat": null, "ts_week": 780}, "geometry": {"type": "Point", "coordinates": [4.416843, 50.848548]}}, {"type": "Feature", "properties": {"id": "8410", "address_fr": "AVENUE HIPPOCRATE 52\n1200 WOLUWE-SAINT-LAMBERT", "status": "ACTIVE", "ts_sat": null, "ts_week": 780}, "geometry": {"type": "Point", "coordinates": [4.454026, 50.852638]}}, {"type": "Feature", "properties": {"id": "7121", "address_fr": "AVENUE HOUBA DE STROOPER 292\n1020 LAEKEN", "status": "ACTIVE", "ts_sat": null, "ts_week": 780}, "geometry": {"type": "Point", "coordinates": [4.332412, 50.893513]}}, {"type": "Feature", "properties": {"id": "16418", "address_fr": "AVENUE HOUBA DE STROOPER 150-152\n1020 LAEKEN", "status": "ACTIVE", "ts_sat": null, "ts_week": 1140}, "geometry": {"type": "Point", "coordinates": [4.336905, 50.889622]}}, {"type": "Feature", "properties": {"id": "7670", "address_fr": "AVENUE HUART HAMOIR 149\n1030 SCHAERBEEK", "status": "ACTIVE", "ts_sat": null, "ts_week": 600}, "geometry": {"type": "Point", "coordinates": [4.386764, 50.87352]}}, {"type": "Feature", "properties": {"id": "16414", "address_fr": "AVENUE IMPÉRATRICE CHARLOTTE 2\n1020 LAEKEN", "status": "ACTIVE", "ts_sat": null, "ts_week": 600}, "geometry": {"type": "Point", "coordinates": [4.336055, 50.897604]}}, {"type": "Feature", "properties": {"id": "6560", "address_fr": "AVENUE ISIDORE GEYSKENS 119\n1160 AUDERGHEM", "status": "ACTIVE", "ts_sat": null, "ts_week": 780}, "geometry": {"type": "Point", "coordinates": [4.421979, 50.819948]}}, {"type": "Feature", "properties": {"id": "16332", "address_fr": "AVENUE JACOBS 1\n1360 PERWEZ", "status": "ACTIVE", "ts_sat": null, "ts_week": 780}, "geometry": {"type": "Point", "coordinates": [4.811736, 50.625758]}}, {"type": "Feature", "properties": {"id": "8289", "address_fr": "AVENUE JEAN LENOIR 2\n1348 LOUVAIN-LA-NEUVE", "status": "ACTIVE", "ts_sat": null, "ts_week": 780}, "geometry": {"type": "Point", "coordinates": [4.626753, 50.666423]}}, {"type": "Feature", "properties": {"id": "6551", "address_fr": "AVENUE JEAN VAN HORENBEECK 196\n1160 AUDERGHEM", "status": "ACTIVE", "ts_sat": null, "ts_week": 780}, "geometry": {"type": "Point", "coordinates": [4.434201, 50.80551]}}, {"type": "Feature", "properties": {"id": "7123", "address_fr": "AVENUE JEAN-BAPTISTE DEPAIRE 118\n1020 LAEKEN", "status": "ACTIVE", "ts_sat": null, "ts_week": 600}, "geometry": {"type": "Point", "coordinates": [4.330989, 50.891021]}}, {"type": "Feature", "properties": {"id": "8236", "address_fr": "AVENUE JEAN-FRANCOIS DEBECKER 10\n1200 WOLUWE-SAINT-LAMBERT", "status": "ACTIVE", "ts_sat": null, "ts_week": 780}, "geometry": {"type": "Point", "coordinates": [4.439938, 50.844669]}}, {"type": "Feature", "properties": {"id": "6564", "address_fr": "AVENUE JEAN-FRANÇOIS LEEMANS 53\n1160 AUDERGHEM", "status": "ACTIVE", "ts_sat": null, "ts_week": 780}, "geometry": {"type": "Point", "coordinates": [4.436557, 50.803281]}}, {"type": "Feature", "properties": {"id": "8497", "address_fr": "AVENUE JEANNE 35\n1000 BRUXELLES", "status": "ACTIVE", "ts_sat": null, "ts_week": 780}, "geometry": {"type": "Point", "coordinates": [4.378123, 50.813853]}}, {"type": "Feature", "properties": {"id": "8177", "address_fr": "AVENUE JEF LAMBEAUX 37\n1060 SAINT-GILLES", "status": "ACTIVE", "ts_sat": null, "ts_week": 600}, "geometry": {"type": "Point", "coordinates": [4.34636, 50.822918]}}, {"type": "Feature", "properties": {"id": "6731", "address_fr": "AVENUE JOSEPH CHAUDRON 48\n1160 AUDERGHEM", "status": "ACTIVE", "ts_sat": null, "ts_week": 600}, "geometry": {"type": "Point", "coordinates": [4.432471, 50.811848]}}, {"type": "Feature", "properties": {"id": "16433", "address_fr": "AVENUE JOSEPH JONGEN 44\n1180 UCCLE", "status": "ACTIVE", "ts_sat": null, "ts_week": 600}, "geometry": {"type": "Point", "coordinates": [4.332566, 50.799393]}}, {"type": "Feature", "properties": {"id": "9656", "address_fr": "AVENUE JOSSE GOFFIN 153\n1082 BERCHEM-SAINTE-AGATHE", "status": "ACTIVE", "ts_sat": null, "ts_week": 780}, "geometry": {"type": "Point", "coordinates": [4.304855, 50.866627]}}, {"type": "Feature", "properties": {"id": "9655", "address_fr": "AVENUE JOSSE GOFFIN 12\n1082 BERCHEM-SAINTE-AGATHE", "status": "ACTIVE", "ts_sat": null, "ts_week": 1020}, "geometry": {"type": "Point", "coordinates": [4.297916, 50.864693]}}, {"type": "Feature", "properties": {"id": "16918", "address_fr": "AVENUE JULES BORDET 162\n1140 EVERE", "status": "ACTIVE", "ts_sat": null, "ts_week": 780}, "geometry": {"type": "Point", "coordinates": [4.417925, 50.871018]}}, {"type": "Feature", "properties": {"id": "22204", "address_fr": "AVENUE JULES CÉSAR 122\n1150 WOLUWE-SAINT-PIERRE", "status": "ACTIVE", "ts_sat": null, "ts_week": 780}, "geometry": {"type": "Point", "coordinates": [4.414176, 50.832252]}}, {"type": "Feature", "properties": {"id": "8742", "address_fr": "AVENUE JULES DU JARDIN 45\n1150 WOLUWE-SAINT-PIERRE", "status": "ACTIVE", "ts_sat": null, "ts_week": 780}, "geometry": {"type": "Point", "coordinates": [4.45493, 50.830067]}}, {"type": "Feature", "properties": {"id": "6561", "address_fr": "AVENUE JULES GÉNICOT 2\n1160 AUDERGHEM", "status": "ACTIVE", "ts_sat": null, "ts_week": 780}, "geometry": {"type": "Point", "coordinates": [4.42804, 50.820563]}}, {"type": "Feature", "properties": {"id": "6931", "address_fr": "AVENUE KAMERDELLE 64\n1180 UCCLE", "status": "ACTIVE", "ts_sat": null, "ts_week": 600}, "geometry": {"type": "Point", "coordinates": [4.349911, 50.800084]}}, {"type": "Feature", "properties": {"id": "7001", "address_fr": "AVENUE KERSBEEK 209\n1190 FOREST", "status": "ACTIVE", "ts_sat": null, "ts_week": 600}, "geometry": {"type": "Point", "coordinates": [4.319035, 50.802728]}}, {"type": "Feature", "properties": {"id": "38383", "address_fr": "AVENUE LAVOISIER 5\n1300 WAVRE", "status": "ACTIVE", "ts_sat": null, "ts_week": 780}, "geometry": {"type": "Point", "coordinates": [4.596246, 50.73639]}}, {"type": "Feature", "properties": {"id": "14503", "address_fr": "AVENUE LÉON FOURNET 21\n1342 LIMELETTE", "status": "ACTIVE", "ts_sat": null, "ts_week": 600}, "geometry": {"type": "Point", "coordinates": [4.574451, 50.685118]}}, {"type": "Feature", "properties": {"id": "6407", "address_fr": "AVENUE LEONARD MOMMAERTS 2\n1140 EVERE", "status": "ACTIVE", "ts_sat": null, "ts_week": 780}, "geometry": {"type": "Point", "coordinates": [4.412826, 50.85678]}}, {"type": "Feature", "properties": {"id": "6585", "address_fr": "AVENUE LÉOPOLD WIENER 26-24\n1170 WATERMAEL-BOITSFORT", "status": "ACTIVE", "ts_sat": null, "ts_week": 780}, "geometry": {"type": "Point", "coordinates": [4.407338, 50.807785]}}, {"type": "Feature", "properties": {"id": "7690", "address_fr": "AVENUE LOUIS BERTRAND 2\n1030 SCHAERBEEK", "status": "ACTIVE", "ts_sat": null, "ts_week": 780}, "geometry": {"type": "Point", "coordinates": [4.373664, 50.864429]}}, {"type": "Feature", "properties": {"id": "8450", "address_fr": "AVENUE LOUIS BERTRAND 128\n1030 SCHAERBEEK", "status": "ACTIVE", "ts_sat": null, "ts_week": 600}, "geometry": {"type": "Point", "coordinates": [4.381925, 50.865065]}}, {"type": "Feature", "properties": {"id": "6556", "address_fr": "AVENUE LOUIS DEHOUX 25\n1160 AUDERGHEM", "status": "ACTIVE", "ts_sat": null, "ts_week": 600}, "geometry": {"type": "Point", "coordinates": [4.419264, 50.814412]}}, {"type": "Feature", "properties": {"id": "8243", "address_fr": "AVENUE LOUIS GRIBAUMONT 3\n1150 WOLUWE-SAINT-PIERRE", "status": "ACTIVE", "ts_sat": null, "ts_week": 780}, "geometry": {"type": "Point", "coordinates": [4.415541, 50.836733]}}, {"type": "Feature", "properties": {"id": "8213", "address_fr": "AVENUE LOUIS GRIBAUMONT 162\n1200 WOLUWE-SAINT-LAMBERT", "status": "ACTIVE", "ts_sat": null, "ts_week": 780}, "geometry": {"type": "Point", "coordinates": [4.418123, 50.842271]}}, {"type": "Feature", "properties": {"id": "9745", "address_fr": "AVENUE LOUIS LEPOUTRE 4\n1050 IXELLES", "status": "ACTIVE", "ts_sat": null, "ts_week": 780}, "geometry": {"type": "Point", "coordinates": [4.359469, 50.819855]}}, {"type": "Feature", "properties": {"id": "9865", "address_fr": "AVENUE LOUISE 326\n1000 BRUXELLES", "status": "ACTIVE", "ts_sat": null, "ts_week": 780}, "geometry": {"type": "Point", "coordinates": [4.368384, 50.823318]}}, {"type": "Feature", "properties": {"id": "16362", "address_fr": "AVENUE LOUISE 145\n1000 BRUXELLES", "status": "ACTIVE", "ts_sat": null, "ts_week": 780}, "geometry": {"type": "Point", "coordinates": [4.361588, 50.828736]}}, {"type": "Feature", "properties": {"id": "15967", "address_fr": "AVENUE LOUISE 440\n1000 BRUXELLES", "status": "ACTIVE", "ts_sat": null, "ts_week": 600}, "geometry": {"type": "Point", "coordinates": [4.3714376, 50.81847]}}, {"type": "Feature", "properties": {"id": "9422", "address_fr": "AVENUE LOUISE 535\n1000 BRUXELLES", "status": "ACTIVE", "ts_sat": null, "ts_week": 600}, "geometry": {"type": "Point", "coordinates": [4.371733, 50.814704]}}, {"type": "Feature", "properties": {"id": "9423", "address_fr": "AVENUE LOUISE 532\n1000 BRUXELLES", "status": "ACTIVE", "ts_sat": null, "ts_week": 600}, "geometry": {"type": "Point", "coordinates": [4.372919178, 50.81508805]}}, {"type": "Feature", "properties": {"id": "25783", "address_fr": "AVENUE LOUISE 379\n1000 BRUXELLES", "status": "ACTIVE", "ts_sat": null, "ts_week": 780}, "geometry": {"type": "Point", "coordinates": [4.370008, 50.820636]}}, {"type": "Feature", "properties": {"id": "9421", "address_fr": "AVENUE LOUISE 379\n1000 BRUXELLES", "status": "ACTIVE", "ts_sat": null, "ts_week": 780}, "geometry": {"type": "Point", "coordinates": [4.370067, 50.820557]}}, {"type": "Feature", "properties": {"id": "10823", "address_fr": "AVENUE MARCEL DEVIENNE 4\n1200 WOLUWE-SAINT-LAMBERT", "status": "ACTIVE", "ts_sat": null, "ts_week": 600}, "geometry": {"type": "Point", "coordinates": [4.448701, 50.844549]}}, {"type": "Feature", "properties": {"id": "8411", "address_fr": "AVENUE MARCEL THIRY 9\n1200 WOLUWE-SAINT-LAMBERT", "status": "ACTIVE", "ts_sat": null, "ts_week": 600}, "geometry": {"type": "Point", "coordinates": [4.439939, 50.854828]}}, {"type": "Feature", "properties": {"id": "8740", "address_fr": "AVENUE MARIE-JOSÉ 1\n1200 WOLUWE-SAINT-LAMBERT", "status": "ACTIVE", "ts_sat": null, "ts_week": 600}, "geometry": {"type": "Point", "coordinates": [4.414424, 50.846079]}}, {"type": "Feature", "properties": {"id": "11319", "address_fr": "AVENUE MARIE-JOSÉ 98\n1200 WOLUWE-SAINT-LAMBERT", "status": "ACTIVE", "ts_sat": null, "ts_week": 600}, "geometry": {"type": "Point", "coordinates": [4.409456, 50.84491]}}, {"type": "Feature", "properties": {"id": "7723", "address_fr": "AVENUE MARIUS RENARD 45\n1070 ANDERLECHT", "status": "ACTIVE", "ts_sat": null, "ts_week": 780}, "geometry": {"type": "Point", "coordinates": [4.285586, 50.82592]}}, {"type": "Feature", "properties": {"id": "16891", "address_fr": "AVENUE MARIUS RENARD 23\n1070 ANDERLECHT", "status": "ACTIVE", "ts_sat": null, "ts_week": 780}, "geometry": {"type": "Point", "coordinates": [4.288725, 50.827327]}}, {"type": "Feature", "properties": {"id": "8498", "address_fr": "AVENUE MARNIX 30\n1000 BRUXELLES", "status": "ACTIVE", "ts_sat": null, "ts_week": 780}, "geometry": {"type": "Point", "coordinates": [4.365912, 50.840501]}}, {"type": "Feature", "properties": {"id": "7672", "address_fr": "AVENUE MILCAMPS 109\n1030 SCHAERBEEK", "status": "ACTIVE", "ts_sat": null, "ts_week": 780}, "geometry": {"type": "Point", "coordinates": [4.39427, 50.850209]}}, {"type": "Feature", "properties": {"id": "6932", "address_fr": "AVENUE MOLIÈRE 327\n1180 UCCLE", "status": "ACTIVE", "ts_sat": null, "ts_week": 780}, "geometry": {"type": "Point", "coordinates": [4.358966, 50.815417]}}, {"type": "Feature", "properties": {"id": "18868", "address_fr": "AVENUE MOLIÈRE 15\n1300 WAVRE", "status": "ACTIVE", "ts_sat": null, "ts_week": 600}, "geometry": {"type": "Point", "coordinates": [4.631247, 50.707088]}}, {"type": "Feature", "properties": {"id": "8265", "address_fr": "AVENUE MOLIÈRE 15\n1300 WAVRE", "status": "ACTIVE", "ts_sat": null, "ts_week": 600}, "geometry": {"type": "Point", "coordinates": [4.63125, 50.707067]}}, {"type": "Feature", "properties": {"id": "6934", "address_fr": "AVENUE MONTJOIE 95-97\n1180 UCCLE", "status": "ACTIVE", "ts_sat": null, "ts_week": 780}, "geometry": {"type": "Point", "coordinates": [4.364585, 50.810041]}}, {"type": "Feature", "properties": {"id": "15946", "address_fr": "AVENUE MOSTINCK 92\n1150 WOLUWE-SAINT-PIERRE", "status": "ACTIVE", "ts_sat": null, "ts_week": 780}, "geometry": {"type": "Point", "coordinates": [4.423132, 50.827981]}}, {"type": "Feature", "properties": {"id": "15950", "address_fr": "AVENUE NEPTUNE 53\n1190 FOREST", "status": "ACTIVE", "ts_sat": null, "ts_week": 780}, "geometry": {"type": "Point", "coordinates": [4.334942, 50.81333]}}, {"type": "Feature", "properties": {"id": "13785", "address_fr": "AVENUE NOTRE-DAME 16\n1300 LIMAL", "status": "ACTIVE", "ts_sat": null, "ts_week": 600}, "geometry": {"type": "Point", "coordinates": [4.569232, 50.69216]}}, {"type": "Feature", "properties": {"id": "10049", "address_fr": "AVENUE NOTRE-DAME DE LOURDES 35\n1090 JETTE", "status": "ACTIVE", "ts_sat": null, "ts_week": 600}, "geometry": {"type": "Point", "coordinates": [4.336298, 50.873288]}}, {"type": "Feature", "properties": {"id": "14062", "address_fr": "AVENUE ORBAN 4\n1150 WOLUWE-SAINT-PIERRE", "status": "ACTIVE", "ts_sat": null, "ts_week": 780}, "geometry": {"type": "Point", "coordinates": [4.452065, 50.831563]}}, {"type": "Feature", "properties": {"id": "16470", "address_fr": "AVENUE OSCAR JESPERS 13\n1200 WOLUWE-SAINT-LAMBERT", "status": "ACTIVE", "ts_sat": null, "ts_week": 600}, "geometry": {"type": "Point", "coordinates": [4.43888, 50.858895]}}, {"type": "Feature", "properties": {"id": "120699", "address_fr": "AVENUE PASTEUR 23\n1300 WAVRE", "status": "ACTIVE", "ts_sat": null, "ts_week": 1020}, "geometry": {"type": "Point", "coordinates": [4.588959217, 50.7307663]}}, {"type": "Feature", "properties": {"id": "46603", "address_fr": "AVENUE PAUL DESCHANEL 2\n1030 SCHAERBEEK", "status": "ACTIVE", "ts_sat": null, "ts_week": 780}, "geometry": {"type": "Point", "coordinates": [4.380944, 50.862702]}}, {"type": "Feature", "properties": {"id": "16327", "address_fr": "AVENUE PAUL HYMANS 127\n1200 WOLUWE-SAINT-LAMBERT", "status": "ACTIVE", "ts_sat": null, "ts_week": 600}, "geometry": {"type": "Point", "coordinates": [4.434108, 50.847339]}}, {"type": "Feature", "properties": {"id": "6408", "address_fr": "AVENUE PLATON 1\n1140 EVERE", "status": "ACTIVE", "ts_sat": null, "ts_week": 780}, "geometry": {"type": "Point", "coordinates": [4.421099, 50.86152]}}, {"type": "Feature", "properties": {"id": "15592", "address_fr": "AVENUE PROVINCIALE 127\n1341 CÉROUX-MOUSTY", "status": "ACTIVE", "ts_sat": null, "ts_week": 600}, "geometry": {"type": "Point", "coordinates": [4.564712, 50.65493]}}, {"type": "Feature", "properties": {"id": "11308", "address_fr": "AVENUE RENÉ STEVENS 7\n1160 AUDERGHEM", "status": "ACTIVE", "ts_sat": null, "ts_week": 600}, "geometry": {"type": "Point", "coordinates": [4.429698, 50.806447]}}, {"type": "Feature", "properties": {"id": "7124", "address_fr": "AVENUE RICHARD NEYBERGH 155\n1020 LAEKEN", "status": "ACTIVE", "ts_sat": null, "ts_week": 600}, "geometry": {"type": "Point", "coordinates": [4.342546, 50.87428]}}, {"type": "Feature", "properties": {"id": "8526", "address_fr": "AVENUE RICHARD NEYBERGH 4\n1020 LAEKEN", "status": "ACTIVE", "ts_sat": null, "ts_week": 780}, "geometry": {"type": "Point", "coordinates": [4.345842, 50.877238]}}, {"type": "Feature", "properties": {"id": "7674", "address_fr": "AVENUE ROGIER 118\n1030 SCHAERBEEK", "status": "ACTIVE", "ts_sat": null, "ts_week": 600}, "geometry": {"type": "Point", "coordinates": [4.377888, 50.85939]}}, {"type": "Feature", "properties": {"id": "7830", "address_fr": "AVENUE ROGIER 162\n1030 SCHAERBEEK", "status": "ACTIVE", "ts_sat": null, "ts_week": 1020}, "geometry": {"type": "Point", "coordinates": [4.382625, 50.858438]}}, {"type": "Feature", "properties": {"id": "7673", "address_fr": "AVENUE ROGIER 1\n1030 SCHAERBEEK", "status": "ACTIVE", "ts_sat": null, "ts_week": 780}, "geometry": {"type": "Point", "coordinates": [4.371601, 50.860741]}}, {"type": "Feature", "properties": {"id": "7002", "address_fr": "AVENUE SAINT-AUGUSTIN 61\n1190 FOREST", "status": "ACTIVE", "ts_sat": null, "ts_week": 780}, "geometry": {"type": "Point", "coordinates": [4.339906, 50.816656]}}, {"type": "Feature", "properties": {"id": "9650", "address_fr": "AVENUE SEGHERS 19\n1081 KOEKELBERG", "status": "ACTIVE", "ts_sat": null, "ts_week": 780}, "geometry": {"type": "Point", "coordinates": [4.322269, 50.862645]}}, {"type": "Feature", "properties": {"id": "13455", "address_fr": "AVENUE SLEECKX 112\n1030 SCHAERBEEK", "status": "ACTIVE", "ts_sat": null, "ts_week": 600}, "geometry": {"type": "Point", "coordinates": [4.382981, 50.875306]}}, {"type": "Feature", "properties": {"id": "6756", "address_fr": "AVENUE VALDUCHESSE 3\n1160 AUDERGHEM", "status": "ACTIVE", "ts_sat": null, "ts_week": 600}, "geometry": {"type": "Point", "coordinates": [4.43118, 50.81961]}}, {"type": "Feature", "properties": {"id": "11343", "address_fr": "AVENUE VAN DE WALLE 33\n1340 OTTIGNIES", "status": "ACTIVE", "ts_sat": null, "ts_week": 600}, "geometry": {"type": "Point", "coordinates": [4.554296, 50.673344]}}, {"type": "Feature", "properties": {"id": "10057", "address_fr": "AVENUE VAN OVERBEKE 243\n1083 GANSHOREN", "status": "ACTIVE", "ts_sat": null, "ts_week": 780}, "geometry": {"type": "Point", "coordinates": [4.306612, 50.876412]}}, {"type": "Feature", "properties": {"id": "9666", "address_fr": "AVENUE VAN OVERBEKE 6\n1083 GANSHOREN", "status": "ACTIVE", "ts_sat": null, "ts_week": 600}, "geometry": {"type": "Point", "coordinates": [4.316348, 50.868614]}}, {"type": "Feature", "properties": {"id": "7004", "address_fr": "AVENUE VAN VOLXEM 166\n1190 FOREST", "status": "ACTIVE", "ts_sat": null, "ts_week": 780}, "geometry": {"type": "Point", "coordinates": [4.325302, 50.818371]}}, {"type": "Feature", "properties": {"id": "8402", "address_fr": "AVENUE VAN VOLXEM 332\n1190 FOREST", "status": "ACTIVE", "ts_sat": null, "ts_week": 780}, "geometry": {"type": "Point", "coordinates": [4.325943, 50.823754]}}, {"type": "Feature", "properties": {"id": "8550", "address_fr": "AVENUE VÉSALE 4\n1300 WAVRE", "status": "ACTIVE", "ts_sat": null, "ts_week": 1020}, "geometry": {"type": "Point", "coordinates": [4.586032, 50.731624]}}, {"type": "Feature", "properties": {"id": "10056", "address_fr": "AVENUE VITAL RIETHUISEN 83\n1083 GANSHOREN", "status": "ACTIVE", "ts_sat": null, "ts_week": 780}, "geometry": {"type": "Point", "coordinates": [4.321188, 50.869816]}}, {"type": "Feature", "properties": {"id": "7675", "address_fr": "AVENUE VOLTAIRE 2\n1030 SCHAERBEEK", "status": "ACTIVE", "ts_sat": null, "ts_week": 600}, "geometry": {"type": "Point", "coordinates": [4.375204, 50.869916]}}, {"type": "Feature", "properties": {"id": "7125", "address_fr": "AVENUE WANNECOUTER 115\n1020 LAEKEN", "status": "ACTIVE", "ts_sat": null, "ts_week": 780}, "geometry": {"type": "Point", "coordinates": [4.362013, 50.898793]}}, {"type": "Feature", "properties": {"id": "11353", "address_fr": "AVENUE WILMART 90\n1360 PERWEZ", "status": "ACTIVE", "ts_sat": null, "ts_week": 600}, "geometry": {"type": "Point", "coordinates": [4.823893, 50.625765]}}, {"type": "Feature", "properties": {"id": "8570", "address_fr": "AVENUE WILMART 26\n1360 PERWEZ", "status": "ACTIVE", "ts_sat": null, "ts_week": 1020}, "geometry": {"type": "Point", "coordinates": [4.816586, 50.624795]}}, {"type": "Feature", "properties": {"id": "24523", "address_fr": "AVENUE WINSTON CHURCHILL 4\n1180 UCCLE", "status": "ACTIVE", "ts_sat": null, "ts_week": 780}, "geometry": {"type": "Point", "coordinates": [4.348326, 50.813474]}}, {"type": "Feature", "properties": {"id": "14504", "address_fr": "AVENUE WINSTON CHURCHILL 2\n1340 OTTIGNIES", "status": "ACTIVE", "ts_sat": null, "ts_week": 600}, "geometry": {"type": "Point", "coordinates": [4.550438, 50.671019]}}, {"type": "Feature", "properties": {"id": "6887", "address_fr": "AVENUE WOLVENDAEL 101\n1180 UCCLE", "status": "ACTIVE", "ts_sat": null, "ts_week": 600}, "geometry": {"type": "Point", "coordinates": [4.343487, 50.797859]}}, {"type": "Feature", "properties": {"id": "14356", "address_fr": "BAS BONLEZ 45\n1325 BONLEZ", "status": "ACTIVE", "ts_sat": null, "ts_week": 600}, "geometry": {"type": "Point", "coordinates": [4.69209, 50.709358]}}, {"type": "Feature", "properties": {"id": "7043", "address_fr": "BOULEVARD ADOLPHE MAX 109\n1000 BRUXELLES", "status": "ACTIVE", "ts_sat": null, "ts_week": 780}, "geometry": {"type": "Point", "coordinates": [4.356701, 50.854325]}}, {"type": "Feature", "properties": {"id": "15387", "address_fr": "BOULEVARD ANSPACH 1\n1000 BRUXELLES", "status": "ACTIVE", "ts_sat": null, "ts_week": 1020}, "geometry": {"type": "Point", "coordinates": [4.352064564, 50.85090139]}}, {"type": "Feature", "properties": {"id": "15435", "address_fr": "BOULEVARD ANSPACH 1\n1000 BRUXELLES", "status": "ACTIVE", "ts_sat": null, "ts_week": 1020}, "geometry": {"type": "Point", "coordinates": [4.35204, 50.85091]}}, {"type": "Feature", "properties": {"id": "16794", "address_fr": "BOULEVARD BISCHOFFSHEIM 38\n1000 BRUXELLES", "status": "ACTIVE", "ts_sat": null, "ts_week": 780}, "geometry": {"type": "Point", "coordinates": [4.366945, 50.852527]}}, {"type": "Feature", "properties": {"id": "8421", "address_fr": "BOULEVARD BISCHOFFSHEIM 11\n1000 BRUXELLES", "status": "ACTIVE", "ts_sat": null, "ts_week": 1020}, "geometry": {"type": "Point", "coordinates": [4.368565, 50.84977]}}, {"type": "Feature", "properties": {"id": "8214", "address_fr": "BOULEVARD BRAND WHITLOCK 144\n1200 WOLUWE-SAINT-LAMBERT", "status": "ACTIVE", "ts_sat": null, "ts_week": 600}, "geometry": {"type": "Point", "coordinates": [4.405469, 50.844245]}}, {"type": "Feature", "properties": {"id": "8215", "address_fr": "BOULEVARD BRAND WHITLOCK 16\n1200 WOLUWE-SAINT-LAMBERT", "status": "ACTIVE", "ts_sat": null, "ts_week": 780}, "geometry": {"type": "Point", "coordinates": [4.408252, 50.838993]}}, {"type": "Feature", "properties": {"id": "8501", "address_fr": "BOULEVARD D&#39;YPRES 68\n1000 BRUXELLES", "status": "ACTIVE", "ts_sat": null, "ts_week": 780}, "geometry": {"type": "Point", "coordinates": [4.346515, 50.857262]}}, {"type": "Feature", "properties": {"id": "8500", "address_fr": "BOULEVARD DE BERLAIMONT 8\n1000 BRUXELLES", "status": "ACTIVE", "ts_sat": null, "ts_week": 780}, "geometry": {"type": "Point", "coordinates": [4.358638, 50.848871]}}, {"type": "Feature", "properties": {"id": "8551", "address_fr": "BOULEVARD DE L&#39;EUROPE 3\n1300 WAVRE", "status": "ACTIVE", "ts_sat": null, "ts_week": 780}, "geometry": {"type": "Point", "coordinates": [4.604072, 50.71203]}}, {"type": "Feature", "properties": {"id": "9186", "address_fr": "BOULEVARD DE LA RÉVISION 24\n1070 ANDERLECHT", "status": "ACTIVE", "ts_sat": null, "ts_week": 600}, "geometry": {"type": "Point", "coordinates": [4.329452, 50.836296]}}, {"type": "Feature", "properties": {"id": "60228", "address_fr": "BOULEVARD DE LA WOLUWE 70\n1200 WOLUWE-SAINT-LAMBERT", "status": "ACTIVE", "ts_sat": null, "ts_week": 780}, "geometry": {"type": "Point", "coordinates": [4.439928, 50.844657]}}, {"type": "Feature", "properties": {"id": "9670", "address_fr": "BOULEVARD DE SMET DE NAEYER 406\n1090 JETTE", "status": "ACTIVE", "ts_sat": null, "ts_week": 600}, "geometry": {"type": "Point", "coordinates": [4.335658, 50.882072]}}, {"type": "Feature", "properties": {"id": "8527", "address_fr": "BOULEVARD DE SMET DE NAEYER 512\n1020 LAEKEN", "status": "ACTIVE", "ts_sat": null, "ts_week": 600}, "geometry": {"type": "Point", "coordinates": [4.338613, 50.884431]}}, {"type": "Feature", "properties": {"id": "8499", "address_fr": "BOULEVARD DE WATERLOO 90\n1000 BRUXELLES", "status": "ACTIVE", "ts_sat": null, "ts_week": 780}, "geometry": {"type": "Point", "coordinates": [4.350968, 50.834365]}}, {"type": "Feature", "properties": {"id": "7042", "address_fr": "BOULEVARD DE WATERLOO 1\n1000 BRUXELLES", "status": "ACTIVE", "ts_sat": null, "ts_week": 780}, "geometry": {"type": "Point", "coordinates": [4.361579, 50.838811]}}, {"type": "Feature", "properties": {"id": "51103", "address_fr": "BOULEVARD DES INVALIDES 269\n1160 AUDERGHEM", "status": "ACTIVE", "ts_sat": null, "ts_week": 780}, "geometry": {"type": "Point", "coordinates": [4.404607, 50.8183]}}, {"type": "Feature", "properties": {"id": "6569", "address_fr": "BOULEVARD DES INVALIDES 144\n1160 AUDERGHEM", "status": "ACTIVE", "ts_sat": null, "ts_week": 600}, "geometry": {"type": "Point", "coordinates": [4.41146, 50.817863]}}, {"type": "Feature", "properties": {"id": "16500", "address_fr": "BOULEVARD DU CENTENAIRE 1\n1020 LAEKEN", "status": "ACTIVE", "ts_sat": null, "ts_week": 780}, "geometry": {"type": "Point", "coordinates": [4.341296, 50.895103]}}, {"type": "Feature", "properties": {"id": "8272", "address_fr": "BOULEVARD DU CENTENAIRE 1\n1325 DION-VALMONT", "status": "ACTIVE", "ts_sat": null, "ts_week": 600}, "geometry": {"type": "Point", "coordinates": [4.651475, 50.704836]}}, {"type": "Feature", "properties": {"id": "7044", "address_fr": "BOULEVARD DU MIDI 142\n1000 BRUXELLES", "status": "ACTIVE", "ts_sat": null, "ts_week": 780}, "geometry": {"type": "Point", "coordinates": [4.343778, 50.833748]}}, {"type": "Feature", "properties": {"id": "8502", "address_fr": "BOULEVARD DU ROI ALBERT II 44-46\n1000 BRUXELLES", "status": "ACTIVE", "ts_sat": null, "ts_week": 780}, "geometry": {"type": "Point", "coordinates": [4.3592, 50.865073]}}, {"type": "Feature", "properties": {"id": "11940", "address_fr": "BOULEVARD DU ROI ALBERT II 28-30\n1000 BRUXELLES", "status": "ACTIVE", "ts_sat": null, "ts_week": 780}, "geometry": {"type": "Point", "coordinates": [4.357941, 50.862006]}}, {"type": "Feature", "properties": {"id": "10878", "address_fr": "BOULEVARD DU SOUVERAIN 240\n1160 AUDERGHEM", "status": "ACTIVE", "ts_sat": null, "ts_week": 1020}, "geometry": {"type": "Point", "coordinates": [4.42414, 50.813947]}}, {"type": "Feature", "properties": {"id": "89340", "address_fr": "BOULEVARD DU TRIOMPHE 151\n1050 IXELLES", "status": "ACTIVE", "ts_sat": null, "ts_week": 780}, "geometry": {"type": "Point", "coordinates": [4.395884, 50.817978]}}, {"type": "Feature", "properties": {"id": "10087", "address_fr": "BOULEVARD EDMOND MACHTENS 2\n1080 MOLENBEEK-SAINT-JEAN", "status": "ACTIVE", "ts_sat": null, "ts_week": 780}, "geometry": {"type": "Point", "coordinates": [4.32291, 50.85387]}}, {"type": "Feature", "properties": {"id": "8528", "address_fr": "BOULEVARD EMILE BOCKSTAEL 132\n1020 LAEKEN", "status": "ACTIVE", "ts_sat": null, "ts_week": 600}, "geometry": {"type": "Point", "coordinates": [4.345719, 50.873245]}}, {"type": "Feature", "properties": {"id": "16405", "address_fr": "BOULEVARD EMILE BOCKSTAEL 25-27\n1020 LAEKEN", "status": "ACTIVE", "ts_sat": null, "ts_week": 780}, "geometry": {"type": "Point", "coordinates": [4.343737, 50.870694]}}, {"type": "Feature", "properties": {"id": "7045", "address_fr": "BOULEVARD EMILE JACQMAIN 60\n1000 BRUXELLES", "status": "ACTIVE", "ts_sat": null, "ts_week": 600}, "geometry": {"type": "Point", "coordinates": [4.353665, 50.853446]}}, {"type": "Feature", "properties": {"id": "8403", "address_fr": "BOULEVARD G. VAN HAELEN 233\n1190 FOREST", "status": "ACTIVE", "ts_sat": null, "ts_week": 780}, "geometry": {"type": "Point", "coordinates": [4.333938, 50.823561]}}, {"type": "Feature", "properties": {"id": "7006", "address_fr": "BOULEVARD G. VAN HAELEN 28\n1190 FOREST", "status": "ACTIVE", "ts_sat": null, "ts_week": 600}, "geometry": {"type": "Point", "coordinates": [4.327602, 50.821017]}}, {"type": "Feature", "properties": {"id": "16559", "address_fr": "BOULEVARD GÉNÉRAL WAHIS 16A\n1030 SCHAERBEEK", "status": "ACTIVE", "ts_sat": null, "ts_week": 1140}, "geometry": {"type": "Point", "coordinates": [4.399248, 50.862308]}}, {"type": "Feature", "properties": {"id": "7702", "address_fr": "BOULEVARD INDUSTRIEL 22\n1070 ANDERLECHT", "status": "ACTIVE", "ts_sat": null, "ts_week": 780}, "geometry": {"type": "Point", "coordinates": [4.313369, 50.826581]}}, {"type": "Feature", "properties": {"id": "7703", "address_fr": "BOULEVARD INDUSTRIEL 103\n1070 ANDERLECHT", "status": "ACTIVE", "ts_sat": null, "ts_week": 780}, "geometry": {"type": "Point", "coordinates": [4.308306, 50.819805]}}, {"type": "Feature", "properties": {"id": "16698", "address_fr": "BOULEVARD JULES GRAINDOR 66\n1070 ANDERLECHT", "status": "ACTIVE", "ts_sat": null, "ts_week": 780}, "geometry": {"type": "Point", "coordinates": [4.317807, 50.844886]}}, {"type": "Feature", "properties": {"id": "25107", "address_fr": "BOULEVARD LAMBERMONT 114\n1030 SCHAERBEEK", "status": "ACTIVE", "ts_sat": null, "ts_week": 780}, "geometry": {"type": "Point", "coordinates": [4.379657, 50.872738]}}, {"type": "Feature", "properties": {"id": "9995", "address_fr": "BOULEVARD LEOPOLD II 237\n1081 KOEKELBERG", "status": "ACTIVE", "ts_sat": null, "ts_week": 600}, "geometry": {"type": "Point", "coordinates": [4.333649, 50.862485]}}, {"type": "Feature", "properties": {"id": "10388", "address_fr": "BOULEVARD LEOPOLD II 44\n1080 MOLENBEEK-SAINT-JEAN", "status": "ACTIVE", "ts_sat": null, "ts_week": 780}, "geometry": {"type": "Point", "coordinates": [4.343194, 50.859411]}}, {"type": "Feature", "properties": {"id": "7676", "address_fr": "BOULEVARD LÉOPOLD III 17\n1030 SCHAERBEEK", "status": "ACTIVE", "ts_sat": null, "ts_week": 780}, "geometry": {"type": "Point", "coordinates": [4.399636, 50.858302]}}, {"type": "Feature", "properties": {"id": "9628", "address_fr": "BOULEVARD LOUIS METTEWIE 65\n1080 MOLENBEEK-SAINT-JEAN", "status": "ACTIVE", "ts_sat": null, "ts_week": 780}, "geometry": {"type": "Point", "coordinates": [4.306799, 50.855505]}}, {"type": "Feature", "properties": {"id": "9627", "address_fr": "BOULEVARD LOUIS METTEWIE 487\n1080 MOLENBEEK-SAINT-JEAN", "status": "ACTIVE", "ts_sat": null, "ts_week": 600}, "geometry": {"type": "Point", "coordinates": [4.298561, 50.847929]}}, {"type": "Feature", "properties": {"id": "10088", "address_fr": "BOULEVARD LOUIS METTEWIE 423\n1080 MOLENBEEK-SAINT-JEAN", "status": "ACTIVE", "ts_sat": null, "ts_week": 780}, "geometry": {"type": "Point", "coordinates": [4.300287, 50.851611]}}, {"type": "Feature", "properties": {"id": "2646", "address_fr": "BOULEVARD LOUIS SCHMIDT 87\n1040 ETTERBEEK", "status": "ACTIVE", "ts_sat": null, "ts_week": 780}, "geometry": {"type": "Point", "coordinates": [4.403193, 50.829488]}}, {"type": "Feature", "properties": {"id": "8399", "address_fr": "BOULEVARD MARIA GROENINCKX-DE MAY 12\n1070 ANDERLECHT", "status": "ACTIVE", "ts_sat": null, "ts_week": 780}, "geometry": {"type": "Point", "coordinates": [4.296417, 50.84201]}}, {"type": "Feature", "properties": {"id": "7726", "address_fr": "BOULEVARD MAURICE HERBETTE 2\n1070 ANDERLECHT", "status": "ACTIVE", "ts_sat": null, "ts_week": 1020}, "geometry": {"type": "Point", "coordinates": [4.312661, 50.843722]}}, {"type": "Feature", "properties": {"id": "10060", "address_fr": "BOULEVARD MAURICE LEMONNIER 227\n1000 BRUXELLES", "status": "ACTIVE", "ts_sat": null, "ts_week": 780}, "geometry": {"type": "Point", "coordinates": [4.341144, 50.84032]}}, {"type": "Feature", "properties": {"id": "16920", "address_fr": "BOULEVARD PACHÉCO 34\n1000 BRUXELLES", "status": "ACTIVE", "ts_sat": null, "ts_week": 600}, "geometry": {"type": "Point", "coordinates": [4.36201, 50.851455]}}, {"type": "Feature", "properties": {"id": "8245", "address_fr": "BOULEVARD PAEPSEM 11A\n1070 ANDERLECHT", "status": "ACTIVE", "ts_sat": null, "ts_week": 1020}, "geometry": {"type": "Point", "coordinates": [4.312951, 50.823534]}}, {"type": "Feature", "properties": {"id": "16349", "address_fr": "BOULEVARD POINCARÉ 72-74\n1070 ANDERLECHT", "status": "ACTIVE", "ts_sat": null, "ts_week": 780}, "geometry": {"type": "Point", "coordinates": [4.339763, 50.841219]}}, {"type": "Feature", "properties": {"id": "8389", "address_fr": "BOULEVARD PRINCE DE LIÈGE 122\n1070 ANDERLECHT", "status": "ACTIVE", "ts_sat": null, "ts_week": 780}, "geometry": {"type": "Point", "coordinates": [4.301328, 50.84363]}}, {"type": "Feature", "properties": {"id": "10192", "address_fr": "BOULEVARD SAINT-MICHEL 24-26\n1040 ETTERBEEK", "status": "ACTIVE", "ts_sat": null, "ts_week": 780}, "geometry": {"type": "Point", "coordinates": [4.406673, 50.835004]}}, {"type": "Feature", "properties": {"id": "7725", "address_fr": "BOULEVARD SYLVAIN DUPUIS 387\n1070 ANDERLECHT", "status": "ACTIVE", "ts_sat": null, "ts_week": 1020}, "geometry": {"type": "Point", "coordinates": [4.283988, 50.837872]}}, {"type": "Feature", "properties": {"id": "7724", "address_fr": "BOULEVARD SYLVAIN DUPUIS 248\n1070 ANDERLECHT", "status": "ACTIVE", "ts_sat": null, "ts_week": 780}, "geometry": {"type": "Point", "coordinates": [4.293421, 50.837139]}}, {"type": "Feature", "properties": {"id": "6937", "address_fr": "CHAUSSÉE D&#39;ALSEMBERG 1247\n1180 UCCLE", "status": "ACTIVE", "ts_sat": null, "ts_week": 780}, "geometry": {"type": "Point", "coordinates": [4.328394, 50.785093]}}, {"type": "Feature", "properties": {"id": "6939", "address_fr": "CHAUSSÉE D&#39;ALSEMBERG 409-411\n1180 UCCLE", "status": "ACTIVE", "ts_sat": null, "ts_week": 780}, "geometry": {"type": "Point", "coordinates": [4.33873, 50.813926]}}, {"type": "Feature", "properties": {"id": "6940", "address_fr": "CHAUSSÉE D&#39;ALSEMBERG 856\n1180 UCCLE", "status": "ACTIVE", "ts_sat": null, "ts_week": 600}, "geometry": {"type": "Point", "coordinates": [4.335512, 50.796191]}}, {"type": "Feature", "properties": {"id": "7049", "address_fr": "CHAUSSÉE D&#39;ANVERS 483\n1000 BRUXELLES", "status": "ACTIVE", "ts_sat": null, "ts_week": 600}, "geometry": {"type": "Point", "coordinates": [4.360825, 50.871175]}}, {"type": "Feature", "properties": {"id": "8503", "address_fr": "CHAUSSÉE D&#39;ANVERS 59\n1000 BRUXELLES", "status": "ACTIVE", "ts_sat": null, "ts_week": 780}, "geometry": {"type": "Point", "coordinates": [4.356399, 50.8619]}}, {"type": "Feature", "properties": {"id": "9748", "address_fr": "CHAUSSÉE D&#39;IXELLES 187\n1050 IXELLES", "status": "ACTIVE", "ts_sat": null, "ts_week": 780}, "geometry": {"type": "Point", "coordinates": [4.366817, 50.83241]}}, {"type": "Feature", "properties": {"id": "9747", "address_fr": "CHAUSSÉE D&#39;IXELLES 27\n1050 IXELLES", "status": "ACTIVE", "ts_sat": null, "ts_week": 1020}, "geometry": {"type": "Point", "coordinates": [4.362233, 50.83719]}}, {"type": "Feature", "properties": {"id": "9746", "address_fr": "CHAUSSÉE DE BOITSFORT 15\n1050 IXELLES", "status": "ACTIVE", "ts_sat": null, "ts_week": 600}, "geometry": {"type": "Point", "coordinates": [4.394572, 50.804096]}}, {"type": "Feature", "properties": {"id": "9866", "address_fr": "CHAUSSÉE DE BOONDAEL 109\n1050 IXELLES", "status": "ACTIVE", "ts_sat": null, "ts_week": 600}, "geometry": {"type": "Point", "coordinates": [4.376448, 50.825215]}}, {"type": "Feature", "properties": {"id": "11323", "address_fr": "CHAUSSÉE DE BRUXELLES 58\n1300 WAVRE", "status": "ACTIVE", "ts_sat": null, "ts_week": 600}, "geometry": {"type": "Point", "coordinates": [4.609712, 50.72075]}}, {"type": "Feature", "properties": {"id": "16715", "address_fr": "CHAUSSÉE DE BRUXELLES 107\n1310 LA HULPE", "status": "ACTIVE", "ts_sat": null, "ts_week": 600}, "geometry": {"type": "Point", "coordinates": [4.474184, 50.735104]}}, {"type": "Feature", "properties": {"id": "15870", "address_fr": "CHAUSSÉE DE CHARLEROI 1\n1370 JODOIGNE", "status": "ACTIVE", "ts_sat": null, "ts_week": 780}, "geometry": {"type": "Point", "coordinates": [4.869661, 50.720429]}}, {"type": "Feature", "properties": {"id": "8178", "address_fr": "CHAUSSÉE DE CHARLEROI 218\n1060 SAINT-GILLES", "status": "ACTIVE", "ts_sat": null, "ts_week": 600}, "geometry": {"type": "Point", "coordinates": [4.354114, 50.823972]}}, {"type": "Feature", "properties": {"id": "10050", "address_fr": "CHAUSSÉE DE DIELEGHEM 20\n1090 JETTE", "status": "ACTIVE", "ts_sat": null, "ts_week": 600}, "geometry": {"type": "Point", "coordinates": [4.321319, 50.882753]}}, {"type": "Feature", "properties": {"id": "89669", "address_fr": "CHAUSSÉE DE DROGENBOS 235\n1180 UCCLE", "status": "ACTIVE", "ts_sat": null, "ts_week": 780}, "geometry": {"type": "Point", "coordinates": [4.320999, 50.785912]}}, {"type": "Feature", "properties": {"id": "8181", "address_fr": "CHAUSSÉE DE FOREST 142\n1060 SAINT-GILLES", "status": "ACTIVE", "ts_sat": null, "ts_week": 600}, "geometry": {"type": "Point", "coordinates": [4.33917, 50.829075]}}, {"type": "Feature", "properties": {"id": "9657", "address_fr": "CHAUSSÉE DE GAND 1096\n1082 BERCHEM-SAINTE-AGATHE", "status": "ACTIVE", "ts_sat": null, "ts_week": 780}, "geometry": {"type": "Point", "coordinates": [4.301561, 50.861752]}}, {"type": "Feature", "properties": {"id": "9630", "address_fr": "CHAUSSÉE DE GAND 738\n1080 MOLENBEEK-SAINT-JEAN", "status": "ACTIVE", "ts_sat": null, "ts_week": 780}, "geometry": {"type": "Point", "coordinates": [4.305329, 50.860649]}}, {"type": "Feature", "properties": {"id": "9981", "address_fr": "CHAUSSÉE DE GAND 608-610\n1080 MOLENBEEK-SAINT-JEAN", "status": "ACTIVE", "ts_sat": null, "ts_week": 780}, "geometry": {"type": "Point", "coordinates": [4.310891, 50.859008]}}, {"type": "Feature", "properties": {"id": "9629", "address_fr": "CHAUSSÉE DE GAND 349\n1080 MOLENBEEK-SAINT-JEAN", "status": "ACTIVE", "ts_sat": null, "ts_week": 780}, "geometry": {"type": "Point", "coordinates": [4.32492, 50.857166]}}, {"type": "Feature", "properties": {"id": "9980", "address_fr": "CHAUSSÉE DE GAND 1335\n1082 BERCHEM-SAINTE-AGATHE", "status": "ACTIVE", "ts_sat": null, "ts_week": 600}, "geometry": {"type": "Point", "coordinates": [4.291358, 50.870452]}}, {"type": "Feature", "properties": {"id": "6403", "address_fr": "CHAUSSÉE DE HAECHT 1031\n1140 EVERE", "status": "ACTIVE", "ts_sat": null, "ts_week": 1020}, "geometry": {"type": "Point", "coordinates": [4.40446, 50.875313]}}, {"type": "Feature", "properties": {"id": "6525", "address_fr": "CHAUSSÉE DE HAECHT 1788\n1130 HAREN", "status": "ACTIVE", "ts_sat": null, "ts_week": 780}, "geometry": {"type": "Point", "coordinates": [4.4247, 50.888411]}}, {"type": "Feature", "properties": {"id": "7826", "address_fr": "CHAUSSÉE DE HELMET 136\n1030 SCHAERBEEK", "status": "ACTIVE", "ts_sat": null, "ts_week": 600}, "geometry": {"type": "Point", "coordinates": [4.385232, 50.872037]}}, {"type": "Feature", "properties": {"id": "132701", "address_fr": "CHAUSSÉE DE HELMET 198-200\n1030 SCHAERBEEK", "status": "ACTIVE", "ts_sat": null, "ts_week": 1020}, "geometry": {"type": "Point", "coordinates": [4.386795998, 50.87311554]}}, {"type": "Feature", "properties": {"id": "7825", "address_fr": "CHAUSSÉE DE HELMET 72\n1030 SCHAERBEEK", "status": "ACTIVE", "ts_sat": null, "ts_week": 600}, "geometry": {"type": "Point", "coordinates": [4.382574081, 50.87018967]}}, {"type": "Feature", "properties": {"id": "8556", "address_fr": "CHAUSSÉE DE HUY 191/1\n1325 CHAUMONT-GISTOUX", "status": "ACTIVE", "ts_sat": null, "ts_week": 1020}, "geometry": {"type": "Point", "coordinates": [4.69104, 50.687088]}}, {"type": "Feature", "properties": {"id": "41563", "address_fr": "CHAUSSÉE DE HUY 98\n1325 DION-VALMONT", "status": "ACTIVE", "ts_sat": null, "ts_week": 600}, "geometry": {"type": "Point", "coordinates": [4.670446, 50.697293]}}, {"type": "Feature", "properties": {"id": "9651", "address_fr": "CHAUSSÉE DE JETTE 190\n1081 KOEKELBERG", "status": "ACTIVE", "ts_sat": null, "ts_week": 600}, "geometry": {"type": "Point", "coordinates": [4.33477, 50.860592]}}, {"type": "Feature", "properties": {"id": "13786", "address_fr": "CHAUSSÉE DE L&#39;ORANGERIE 41\n1300 WAVRE", "status": "ACTIVE", "ts_sat": null, "ts_week": 600}, "geometry": {"type": "Point", "coordinates": [4.612907, 50.725451]}}, {"type": "Feature", "properties": {"id": "14053", "address_fr": "CHAUSSÉE DE LA CROIX 84\n1340 OTTIGNIES", "status": "ACTIVE", "ts_sat": null, "ts_week": 600}, "geometry": {"type": "Point", "coordinates": [4.581543, 50.667702]}}, {"type": "Feature", "properties": {"id": "11315", "address_fr": "CHAUSSÉE DE LA HULPE 171\n1170 WATERMAEL-BOITSFORT", "status": "ACTIVE", "ts_sat": null, "ts_week": 600}, "geometry": {"type": "Point", "coordinates": [4.401659, 50.796073]}}, {"type": "Feature", "properties": {"id": "6587", "address_fr": "CHAUSSÉE DE LA HULPE 189\n1170 WATERMAEL-BOITSFORT", "status": "ACTIVE", "ts_sat": null, "ts_week": 780}, "geometry": {"type": "Point", "coordinates": [4.406925, 50.7953]}}, {"type": "Feature", "properties": {"id": "8504", "address_fr": "CHAUSSÉE DE LA HULPE 26-28\n1000 BRUXELLES", "status": "ACTIVE", "ts_sat": null, "ts_week": 780}, "geometry": {"type": "Point", "coordinates": [4.378584, 50.799365]}}, {"type": "Feature", "properties": {"id": "6586", "address_fr": "CHAUSSÉE DE LA HULPE 150\n1170 WATERMAEL-BOITSFORT", "status": "ACTIVE", "ts_sat": null, "ts_week": 780}, "geometry": {"type": "Point", "coordinates": [4.401029, 50.796612]}}, {"type": "Feature", "properties": {"id": "6588", "address_fr": "CHAUSSÉE DE LA HULPE 463\n1170 WATERMAEL-BOITSFORT", "status": "ACTIVE", "ts_sat": null, "ts_week": 780}, "geometry": {"type": "Point", "coordinates": [4.423872, 50.789314]}}, {"type": "Feature", "properties": {"id": "6523", "address_fr": "CHAUSSÉE DE LOUVAIN 771\n1140 EVERE", "status": "ACTIVE", "ts_sat": null, "ts_week": 600}, "geometry": {"type": "Point", "coordinates": [4.408290863, 50.85755539]}}, {"type": "Feature", "properties": {"id": "17128", "address_fr": "CHAUSSÉE DE LOUVAIN 27\n1320 HAMME-MILLE", "status": "ACTIVE", "ts_sat": null, "ts_week": 600}, "geometry": {"type": "Point", "coordinates": [4.715657, 50.781468]}}, {"type": "Feature", "properties": {"id": "8264", "address_fr": "CHAUSSÉE DE LOUVAIN 150\n1300 WAVRE", "status": "ACTIVE", "ts_sat": null, "ts_week": 780}, "geometry": {"type": "Point", "coordinates": [4.619059, 50.71672]}}, {"type": "Feature", "properties": {"id": "8247", "address_fr": "CHAUSSÉE DE MONS 1421\n1070 ANDERLECHT", "status": "ACTIVE", "ts_sat": null, "ts_week": 780}, "geometry": {"type": "Point", "coordinates": [4.289032, 50.812216]}}, {"type": "Feature", "properties": {"id": "7704", "address_fr": "CHAUSSÉE DE MONS 145\n1070 ANDERLECHT", "status": "ACTIVE", "ts_sat": null, "ts_week": 780}, "geometry": {"type": "Point", "coordinates": [4.331314, 50.842484]}}, {"type": "Feature", "properties": {"id": "7705", "address_fr": "CHAUSSÉE DE MONS 861\n1070 ANDERLECHT", "status": "ACTIVE", "ts_sat": null, "ts_week": 600}, "geometry": {"type": "Point", "coordinates": [4.303105, 50.828473]}}, {"type": "Feature", "properties": {"id": "57448", "address_fr": "CHAUSSÉE DE NAMUR 90E\n1315 GLIMES", "status": "ACTIVE", "ts_sat": null, "ts_week": 1020}, "geometry": {"type": "Point", "coordinates": [4.810081, 50.688098]}}, {"type": "Feature", "properties": {"id": "8554", "address_fr": "CHAUSSÉE DE NAMUR 17\n1320 HAMME-MILLE", "status": "ACTIVE", "ts_sat": null, "ts_week": 1020}, "geometry": {"type": "Point", "coordinates": [4.718082, 50.778536]}}, {"type": "Feature", "properties": {"id": "8549", "address_fr": "CHAUSSÉE DE NAMUR 65\n1300 WAVRE", "status": "ACTIVE", "ts_sat": null, "ts_week": 780}, "geometry": {"type": "Point", "coordinates": [4.615719, 50.705784]}}, {"type": "Feature", "properties": {"id": "11322", "address_fr": "CHAUSSÉE DE NAMUR 2\n1300 WAVRE", "status": "ACTIVE", "ts_sat": null, "ts_week": 600}, "geometry": {"type": "Point", "coordinates": [4.616329, 50.710246]}}, {"type": "Feature", "properties": {"id": "12649", "address_fr": "CHAUSSÉE DE NAMUR 37\n1367 GEEST-GÉROMPONT-PETIT-ROSIÈRE", "status": "ACTIVE", "ts_sat": null, "ts_week": 600}, "geometry": {"type": "Point", "coordinates": [4.858933, 50.63963]}}, {"type": "Feature", "properties": {"id": "71928", "address_fr": "CHAUSSÉE DE NEERSTALLE 348\n1190 FOREST", "status": "ACTIVE", "ts_sat": null, "ts_week": 780}, "geometry": {"type": "Point", "coordinates": [4.318501, 50.800213]}}, {"type": "Feature", "properties": {"id": "7706", "address_fr": "CHAUSSÉE DE NINOVE 500\n1070 ANDERLECHT", "status": "ACTIVE", "ts_sat": null, "ts_week": 780}, "geometry": {"type": "Point", "coordinates": [4.308125, 50.847677]}}, {"type": "Feature", "properties": {"id": "56890", "address_fr": "CHAUSSÉE DE NINOVE 1146\n1080 MOLENBEEK-SAINT-JEAN", "status": "ACTIVE", "ts_sat": null, "ts_week": 780}, "geometry": {"type": "Point", "coordinates": [4.284481, 50.845598]}}, {"type": "Feature", "properties": {"id": "8429", "address_fr": "CHAUSSÉE DE ROODEBEEK 212\n1200 WOLUWE-SAINT-LAMBERT", "status": "ACTIVE", "ts_sat": null, "ts_week": 780}, "geometry": {"type": "Point", "coordinates": [4.427867, 50.848448]}}, {"type": "Feature", "properties": {"id": "16712", "address_fr": "CHAUSSÉE DE SAINT-JOB 314\n1180 UCCLE", "status": "ACTIVE", "ts_sat": null, "ts_week": 780}, "geometry": {"type": "Point", "coordinates": [4.346746, 50.79283]}}, {"type": "Feature", "properties": {"id": "11320", "address_fr": "CHAUSSÉE DE STOCKEL 63\n1200 WOLUWE-SAINT-LAMBERT", "status": "ACTIVE", "ts_sat": null, "ts_week": 600}, "geometry": {"type": "Point", "coordinates": [4.440788, 50.840228]}}, {"type": "Feature", "properties": {"id": "8216", "address_fr": "CHAUSSÉE DE STOCKEL 294\n1200 WOLUWE-SAINT-LAMBERT", "status": "ACTIVE", "ts_sat": null, "ts_week": 600}, "geometry": {"type": "Point", "coordinates": [4.450324, 50.841708]}}, {"type": "Feature", "properties": {"id": "6576", "address_fr": "CHAUSSÉE DE TERVUEREN 137\n1160 AUDERGHEM", "status": "ACTIVE", "ts_sat": null, "ts_week": 780}, "geometry": {"type": "Point", "coordinates": [4.43679, 50.816604]}}, {"type": "Feature", "properties": {"id": "11366", "address_fr": "CHAUSSÉE DE TIRLEMONT 563\n1370 ZÉTRUD-LUMAY", "status": "ACTIVE", "ts_sat": null, "ts_week": 600}, "geometry": {"type": "Point", "coordinates": [4.888569, 50.758907]}}, {"type": "Feature", "properties": {"id": "7050", "address_fr": "CHAUSSÉE DE VLEURGAT 152\n1000 BRUXELLES", "status": "ACTIVE", "ts_sat": null, "ts_week": 600}, "geometry": {"type": "Point", "coordinates": [4.367159, 50.822779]}}, {"type": "Feature", "properties": {"id": "8182", "address_fr": "CHAUSSÉE DE WATERLOO 57\n1060 SAINT-GILLES", "status": "ACTIVE", "ts_sat": null, "ts_week": 780}, "geometry": {"type": "Point", "coordinates": [4.34454, 50.830681]}}, {"type": "Feature", "properties": {"id": "6942", "address_fr": "CHAUSSÉE DE WATERLOO 1083\n1180 UCCLE", "status": "ACTIVE", "ts_sat": null, "ts_week": 780}, "geometry": {"type": "Point", "coordinates": [4.372769, 50.802555]}}, {"type": "Feature", "properties": {"id": "9398", "address_fr": "CHAUSSÉE DE WATERLOO 412\n1050 IXELLES", "status": "ACTIVE", "ts_sat": null, "ts_week": 780}, "geometry": {"type": "Point", "coordinates": [4.354774, 50.822406]}}, {"type": "Feature", "properties": {"id": "6945", "address_fr": "CHAUSSÉE DE WATERLOO 1502\n1180 UCCLE", "status": "ACTIVE", "ts_sat": null, "ts_week": 600}, "geometry": {"type": "Point", "coordinates": [4.37923, 50.783476]}}, {"type": "Feature", "properties": {"id": "6944", "address_fr": "CHAUSSÉE DE WATERLOO 1357\n1180 UCCLE", "status": "ACTIVE", "ts_sat": null, "ts_week": 780}, "geometry": {"type": "Point", "coordinates": [4.374833, 50.789722]}}, {"type": "Feature", "properties": {"id": "6947", "address_fr": "CHAUSSÉE DE WATERLOO 775\n1180 UCCLE", "status": "ACTIVE", "ts_sat": null, "ts_week": 600}, "geometry": {"type": "Point", "coordinates": [4.368053, 50.81267]}}, {"type": "Feature", "properties": {"id": "6948", "address_fr": "CHAUSSÉE DE WATERLOO 715\n1180 UCCLE", "status": "ACTIVE", "ts_sat": null, "ts_week": 780}, "geometry": {"type": "Point", "coordinates": [4.366965, 50.815642]}}, {"type": "Feature", "properties": {"id": "12724", "address_fr": "CHAUSSÉE DE WAVRE 13\n1350 JANDRAIN-JANDRENOUILLE", "status": "ACTIVE", "ts_sat": null, "ts_week": 600},