{"marker": [{"address1_fr": "ALLÉE DE LA PEUPLERAIE 4", "address2_fr": "1300 WAVRE", "address1_nl": "ALLÉE DE LA PEUPLERAIE 4", "address2_nl": "1300 WAVRE", "id": "15400", "lat": "50.703662", "lng": "4.638964", "status": "ACTIVE", "week": "10:00", "sat": ""}, {"address1_fr": "ALLÉE DE LA RECHERCHE 30", "address2_fr": "1070 ANDERLECHT", "address1_nl": "RESEARCHDREEF 30", "address2_nl": "1070 ANDERLECHT", "id": "7695", "lat": "50.816932", "lng": "4.267653", "status": "ACTIVE", "week": "10:00", "sat": ""}, {"address1_fr": "ALLÉE DES FREESIAS 1", "address2_fr": "1030 SCHAERBEEK", "address1_nl": "FREESIADREEF 1", "address2_nl": "1030 SCHAARBEEK", "id": "11294", "lat": "50.865287", "lng": "4.390738", "status": "ACTIVE", "week": "10:00", "sat": ""}, {"address1_fr": "ANCIENNE DRÈVE DES TILLEULS 1", "address2_fr": "1370 JODOIGNE", "address1_nl": "ANCIENNE DRÈVE DES TILLEULS 1", "address2_nl": "1370 JODOIGNE", "id": "11365", "lat": "50.72448", "lng": "4.861736", "status": "ACTIVE", "week": "10:00", "sat": ""}, {"address1_fr": "AVENUE ACHILLE REISDORFF 47", "address2_fr": "1180 UCCLE", "address1_nl": "ACHILLE REISDORFFLAAN 47", "address2_nl": "1180 UKKEL", "id": "7665", "lat": "50.793126", "lng": "4.324736", "status": "ACTIVE", "week": "13:00", "sat": ""}, {"address1_fr": "AVENUE ADOLPHE BUYL 110A", "address2_fr": "1050 IXELLES", "address1_nl": "ADOLPHE BUYLLAAN 110A", "address2_nl": "1050 ELSENE", "id": "9861", "lat": "50.816193", "lng": "4.382851", "status": "ACTIVE", "week": "10:00", "sat": ""}, {"address1_fr": "AVENUE ADOLPHE BUYL 157", "address2_fr": "1050 IXELLES", "address1_nl": "ADOLPHE BUYLLAAN 157", "address2_nl": "1050 ELSENE", "id": "9407", "lat": "50.812203", "lng": "4.385039", "status": "ACTIVE", "week": "10:00", "sat": ""}, {"address1_fr": "AVENUE ADRIEN STAS 2", "address2_fr": "1350 JAUCHE", "address1_nl": "AVENUE ADRIEN STAS 2", "address2_nl": "1350 JAUCHE", "id": "11347", "lat": "50.682749", "lng": "4.9553", "status": "ACTIVE", "week": "10:00", "sat": ""}, {"address1_fr": "AVENUE ALBERT 293", "address2_fr": "1180 UCCLE", "address1_nl": "ALBERTLAAN 293", "address2_nl": "1180 UKKEL", "id": "6876", "lat": "50.814085", "lng": "4.347366", "status": "ACTIVE", "week": "13:00", "sat": ""}, {"address1_fr": "AVENUE ALBERT I 102", "address2_fr": "1342 LIMELETTE", "address1_nl": "AVENUE ALBERT I 102", "address2_nl": "1342 LIMELETTE", "id": "14051", "lat": "50.675767", "lng": "4.571915", "status": "ACTIVE", "week": "10:00", "sat": ""}, {"address1_fr": "AVENUE ALBERT IER 239", "address2_fr": "1332 GENVAL", "address1_nl": "AVENUE ALBERT IER 239", "address2_nl": "1332 GENVAL", "id": "14497", "lat": "50.725336", "lng": "4.509264", "status": "ACTIVE", "week": "10:00", "sat": ""}, {"address1_fr": "AVENUE ALBERT IER 12", "address2_fr": "1332 GENVAL", "address1_nl": "AVENUE ALBERT IER 12", "address2_nl": "1332 GENVAL", "id": "8285", "lat": "50.727456", "lng": "4.487418", "status": "ACTIVE", "week": "13:00", "sat": ""}, {"address1_fr": "AVENUE ALEXANDRE BERTRAND 50", "address2_fr": "1190 FOREST", "address1_nl": "ALEXANDRE BERTRANDLAAN 50", "address2_nl": "1190 VORST", "id": "6995", "lat": "50.81878", "lng": "4.336373", "status": "ACTIVE", "week": "10:00", "sat": ""}, {"address1_fr": "AVENUE ALFRED MADOUX 4B", "address2_fr": "1150 WOLUWE-SAINT-PIERRE", "address1_nl": "ALFRED MADOUXLAAN 4B", "address2_nl": "1150 SINT-PIETERS-WOLUWE", "id": "8223", "lat": "50.827895", "lng": "4.446806", "status": "ACTIVE", "week": "10:00", "sat": ""}, {"address1_fr": "AVENUE ANTOINE JOSEPH SLEGERS 204", "address2_fr": "1200 WOLUWE-SAINT-LAMBERT", "address1_nl": "ANTOINE JOSEPH SLEGERSLAAN 204", "address2_nl": "1200 SINT-LAMBRECHTS-WOLUWE", "id": "8237", "lat": "50.84066391", "lng": "4.419561386", "status": "ACTIVE", "week": "10:00", "sat": ""}, {"address1_fr": "AVENUE ANTOON VAN OSS 1", "address2_fr": "1120 NEDER-OVER-HEEMBEEK", "address1_nl": "ANTOON VAN OSSLAAN 1", "address2_nl": "1120 NEDER-OVER-HEEMBEEK", "id": "13285", "lat": "50.905954", "lng": "4.403261", "status": "ACTIVE", "week": "17:00", "sat": ""}, {"address1_fr": "AVENUE AUGUSTE MATTAGNE 3", "address2_fr": "1300 WAVRE", "address1_nl": "AVENUE AUGUSTE MATTAGNE 3", "address2_nl": "1300 WAVRE", "id": "15591", "lat": "50.718589", "lng": "4.613333", "status": "ACTIVE", "week": "10:00", "sat": ""}, {"address1_fr": "AVENUE AUGUSTE VERMEYLEN 2", "address2_fr": "1140 EVERE", "address1_nl": "AUGUSTE VERMEYLENLAAN 2", "address2_nl": "1140 EVERE", "id": "11803", "lat": "50.862858", "lng": "4.424709", "status": "ACTIVE", "week": "10:00", "sat": ""}, {"address1_fr": "AVENUE BARON ALBERT D&#39;HUART 3", "address2_fr": "1150 WOLUWE-SAINT-PIERRE", "address1_nl": "BARON ALBERT D&#39;HUARTLAAN 3", "address2_nl": "1150 SINT-PIETERS-WOLUWE", "id": "8224", "lat": "50.839337", "lng": "4.465623", "status": "ACTIVE", "week": "13:00", "sat": ""}, {"address1_fr": "AVENUE BEL HORIZON 39", "address2_fr": "1332 GENVAL", "address1_nl": "AVENUE BEL HORIZON 39", "address2_nl": "1332 GENVAL", "id": "11339", "lat": "50.72872", "lng": "4.507082", "status": "ACTIVE", "week": "10:00", "sat": ""}, {"address1_fr": "AVENUE BESME 94", "address2_fr": "1190 FOREST", "address1_nl": "BESMELAAN 94", "address2_nl": "1190 VORST", "id": "6996", "lat": "50.821639", "lng": "4.341992", "status": "ACTIVE", "week": "13:00", "sat": ""}, {"address1_fr": "AVENUE BOURGMESTRE JEAN HERINCKX 8", "address2_fr": "1180 UCCLE", "address1_nl": "BURGEMEESTER JAN HERINCKXLAAN 8", "address2_nl": "1180 UKKEL", "id": "89648", "lat": "50.807458", "lng": "4.347946", "status": "ACTIVE", "week": "13:00", "sat": ""}, {"address1_fr": "AVENUE BROUSTIN 7", "address2_fr": "1090 JETTE", "address1_nl": "BROUSTINLAAN 7", "address2_nl": "1090 JETTE", "id": "10046", "lat": "50.86773", "lng": "4.325981", "status": "ACTIVE", "week": "13:00", "sat": ""}, {"address1_fr": "AVENUE BROUSTIN 116", "address2_fr": "1083 GANSHOREN", "address1_nl": "BROUSTINLAAN 116", "address2_nl": "1083 GANSHOREN", "id": "9662", "lat": "50.867225", "lng": "4.321431", "status": "ACTIVE", "week": "10:00", "sat": ""}, {"address1_fr": "AVENUE BRUGMANN 119-121", "address2_fr": "1190 FOREST", "address1_nl": "BRUGMANNLAAN 119-121", "address2_nl": "1190 VORST", "id": "6997", "lat": "50.818557", "lng": "4.350898", "status": "ACTIVE", "week": "10:00", "sat": ""}, {"address1_fr": "AVENUE BRUGMANN 617", "address2_fr": "1180 UCCLE", "address1_nl": "BRUGMANNLAAN 617", "address2_nl": "1180 UKKEL", "id": "6926", "lat": "50.800577", "lng": "4.336966", "status": "ACTIVE", "week": "13:00", "sat": ""}, {"address1_fr": "AVENUE BRUGMANN 339", "address2_fr": "1180 UCCLE", "address1_nl": "BRUGMANNLAAN 339", "address2_nl": "1180 UKKEL", "id": "89650", "lat": "50.810036", "lng": "4.345935", "status": "ACTIVE", "week": "10:00", "sat": ""}, {"address1_fr": "AVENUE CAPITAINE FOSSOUL 45", "address2_fr": "1070 ANDERLECHT", "address1_nl": "KAPITEIN FOSSOULLAAN 45", "address2_nl": "1070 ANDERLECHT", "id": "8252", "lat": "50.832934", "lng": "4.285453", "status": "ACTIVE", "week": "13:00", "sat": ""}, {"address1_fr": "AVENUE CARTON DE WIART 81", "address2_fr": "1090 JETTE", "address1_nl": "CARTON DE WIARTLAAN 81", "address2_nl": "1090 JETTE", "id": "9668", "lat": "50.867919", "lng": "4.330067", "status": "ACTIVE", "week": "13:00", "sat": ""}, {"address1_fr": "AVENUE CHARLES GILISQUET 48", "address2_fr": "1030 SCHAERBEEK", "address1_nl": "CHARLES GILISQUETLAAN 48", "address2_nl": "1030 SCHAARBEEK", "id": "7689", "lat": "50.864449", "lng": "4.394145", "status": "ACTIVE", "week": "13:00", "sat": ""}, {"address1_fr": "AVENUE CHARLES MADOUX 30", "address2_fr": "1160 AUDERGHEM", "address1_nl": "CHARLES MADOUXLAAN 30", "address2_nl": "1160 OUDERGEM", "id": "6549", "lat": "50.82463", "lng": "4.402056", "status": "ACTIVE", "week": "10:00", "sat": ""}, {"address1_fr": "AVENUE CHARLES QUINT 114", "address2_fr": "1083 GANSHOREN", "address1_nl": "KEIZER KARELLAAN 114", "address2_nl": "1083 GANSHOREN", "id": "76688", "lat": "50.869499", "lng": "4.308945", "status": "ACTIVE", "week": "13:00", "sat": ""}, {"address1_fr": "AVENUE CHARLES QUINT 560", "address2_fr": "1082 BERCHEM-SAINTE-AGATHE", "address1_nl": "KEIZER KARELLAAN 560", "address2_nl": "1082 SINT-AGATHA-BERCHEM", "id": "9684", "lat": "50.871922", "lng": "4.292441", "status": "ACTIVE", "week": "13:00", "sat": ""}, {"address1_fr": "AVENUE CHARLES THIELEMANS 22", "address2_fr": "1150 WOLUWE-SAINT-PIERRE", "address1_nl": "CHARLES THIELEMANSLAAN 22", "address2_nl": "1150 SINT-PIETERS-WOLUWE", "id": "8441", "lat": "50.83700562", "lng": "4.43127203", "status": "ACTIVE", "week": "17:00", "sat": ""}, {"address1_fr": "AVENUE CIRCULAIRE 144", "address2_fr": "1180 UCCLE", "address1_nl": "RINGLAAN 144", "address2_nl": "1180 UKKEL", "id": "7515", "lat": "50.797659", "lng": "4.355652", "status": "ACTIVE", "week": "13:00", "sat": ""}, {"address1_fr": "AVENUE CLEMENCEAU 24", "address2_fr": "1070 ANDERLECHT", "address1_nl": "CLEMENCEAULAAN 24", "address2_nl": "1070 ANDERLECHT", "id": "7696", "lat": "50.839972", "lng": "4.334935", "status": "ACTIVE", "week": "10:00", "sat": ""}, {"address1_fr": "AVENUE CLÉMENTINE 24", "address2_fr": "1190 FOREST", "address1_nl": "CLEMENTINALAAN 24", "address2_nl": "1190 VORST", "id": "6998", "lat": "50.82499", "lng": "4.339151", "status": "ACTIVE", "week": "10:00", "sat": ""}, {"address1_fr": "AVENUE COLONIALE 68", "address2_fr": "1170 WATERMAEL-BOITSFORT", "address1_nl": "KOLONIALELAAN 68", "address2_nl": "1170 WATERMAAL-BOSVOORDE", "id": "6580", "lat": "50.805273", "lng": "4.406643", "status": "ACTIVE", "week": "13:00", "sat": ""}, {"address1_fr": "AVENUE D&#39;AUDERGHEM 311", "address2_fr": "1040 ETTERBEEK", "address1_nl": "OUDERGEMLAAN 311", "address2_nl": "1040 ETTERBEEK", "id": "2641", "lat": "50.830945", "lng": "4.389837", "status": "ACTIVE", "week": "13:00", "sat": ""}, {"address1_fr": "AVENUE D&#39;HOUGOUMONT 5", "address2_fr": "1180 UCCLE", "address1_nl": "HOUGOUMONTLAAN 5", "address2_nl": "1180 UKKEL", "id": "6928", "lat": "50.775663", "lng": "4.381892", "status": "ACTIVE", "week": "13:00", "sat": ""}, {"address1_fr": "AVENUE D&#39;ITTERBEEK 201", "address2_fr": "1070 ANDERLECHT", "address1_nl": "ITTERBEEKSE LAAN 201", "address2_nl": "1070 ANDERLECHT", "id": "15880", "lat": "50.834713", "lng": "4.289349", "status": "ACTIVE", "week": "13:00", "sat": ""}, {"address1_fr": "AVENUE DAILLY 259", "address2_fr": "1030 SCHAERBEEK", "address1_nl": "DAILLYLAAN 259", "address2_nl": "1030 SCHAARBEEK", "id": "23443", "lat": "50.852612", "lng": "4.387385", "status": "ACTIVE", "week": "13:00", "sat": ""}, {"address1_fr": "AVENUE DE BEAULIEU 24", "address2_fr": "1160 AUDERGHEM", "address1_nl": "DE BEAULIEULAAN 24", "address2_nl": "1160 OUDERGEM", "id": "6555", "lat": "50.814628", "lng": "4.408801", "status": "ACTIVE", "week": "13:00", "sat": ""}, {"address1_fr": "AVENUE DE BEERSEL 98", "address2_fr": "1180 UCCLE", "address1_nl": "BEERSELLAAN 98", "address2_nl": "1180 UKKEL", "id": "6879", "lat": "50.784135", "lng": "4.323664", "status": "ACTIVE", "week": "13:00", "sat": ""}, {"address1_fr": "AVENUE DE BOETENDAEL 90", "address2_fr": "1180 UCCLE", "address1_nl": "BOETENDAELLAAN 90", "address2_nl": "1180 UKKEL", "id": "94488", "lat": "50.806834", "lng": "4.344017", "status": "ACTIVE", "week": "10:00", "sat": ""}, {"address1_fr": "AVENUE DE BROQUEVILLE 115", "address2_fr": "1200 WOLUWE-SAINT-LAMBERT", "address1_nl": "DE BROQUEVILLELAAN 115", "address2_nl": "1200 SINT-LAMBRECHTS-WOLUWE", "id": "8206", "lat": "50.841647", "lng": "4.415054", "status": "ACTIVE", "week": "13:00", "sat": ""}, {"address1_fr": "AVENUE DE CHÉRÉMONT 35", "address2_fr": "1300 WAVRE", "address1_nl": "AVENUE DE CHÉRÉMONT 35", "address2_nl": "1300 WAVRE", "id": "15399", "lat": "50.708712", "lng": "4.62448", "status": "ACTIVE", "week": "10:00", "sat": ""}, {"address1_fr": "AVENUE DE FLORÉAL 83", "address2_fr": "1180 UCCLE", "address1_nl": "FLOREALLAAN 83", "address2_nl": "1180 UKKEL", "id": "15818", "lat": "50.809186", "lng": "4.344566", "status": "ACTIVE", "week": "10:00", "sat": ""}, {"address1_fr": "AVENUE DE FOESTRAETS 5", "address2_fr": "1180 UCCLE", "address1_nl": "DE FOESTRAETSLAAN 5", "address2_nl": "1180 UKKEL", "id": "6882", "lat": "50.787229", "lng": "4.375878", "status": "ACTIVE", "week": "13:00", "sat": ""}, {"address1_fr": "AVENUE DE FRÉ 94", "address2_fr": "1180 UCCLE", "address1_nl": "DE FRELAAN 94", "address2_nl": "1180 UKKEL", "id": "6888", "lat": "50.804385", "lng": "4.357204", "status": "ACTIVE", "week": "13:00", "sat": ""}, {"address1_fr": "AVENUE DE HINNISDAEL 8", "address2_fr": "1150 WOLUWE-SAINT-PIERRE", "address1_nl": "DE HINNISDAELLAAN 8", "address2_nl": "1150 SINT-PIETERS-WOLUWE", "id": "63448", "lat": "50.841042", "lng": "4.465213", "status": "ACTIVE", "week": "13:00", "sat": ""}, {"address1_fr": "AVENUE DE KRAAINEM 219", "address2_fr": "1200 WOLUWE-SAINT-LAMBERT", "address1_nl": "KRAAINEMLAAN 219", "address2_nl": "1200 SINT-LAMBRECHTS-WOLUWE", "id": "16366", "lat": "50.848673", "lng": "4.459536", "status": "ACTIVE", "week": "13:00", "sat": ""}, {"address1_fr": "AVENUE DE L&#39;AIGLON 40", "address2_fr": "1180 UCCLE", "address1_nl": "AIGLONLAAN 40", "address2_nl": "1180 UKKEL", "id": "6884", "lat": "50.783484", "lng": "4.36208", "status": "ACTIVE", "week": "13:00", "sat": ""}, {"address1_fr": "AVENUE DE L&#39;ARBALÈTE 51", "address2_fr": "1170 WATERMAEL-BOITSFORT", "address1_nl": "KRUISBOOGLAAN 51", "address2_nl": "1170 WATERMAAL-BOSVOORDE", "id": "6581", "lat": "50.799721", "lng": "4.405837", "status": "ACTIVE", "week": "13:00", "sat": ""}, {"address1_fr": "AVENUE DE L&#39;ARBRE BALLON 24", "address2_fr": "1090 JETTE", "address1_nl": "DIKKE BEUKLAAN 24", "address2_nl": "1090 JETTE", "id": "10047", "lat": "50.894006", "lng": "4.322222", "status": "ACTIVE", "week": "13:00", "sat": ""}, {"address1_fr": "AVENUE DE L&#39;ARBRE BALLON 1", "address2_fr": "1020 LAEKEN", "address1_nl": "DIKKEBEUKLAAN 1", "address2_nl": "1020 LAKEN", "id": "8523", "lat": "50.893995", "lng": "4.32678", "status": "ACTIVE", "week": "10:00", "sat": ""}, {"address1_fr": "AVENUE DE L&#39;ASTRONOMIE dec/13", "address2_fr": "1210 SAINT-JOSSE-TEN-NOODE", "address1_nl": "STERRENKUNDELAAN dec/13", "address2_nl": "1210 SINT-JOOST-TEN-NOODE", "id": "8538", "lat": "50.850513", "lng": "4.369254", "status": "ACTIVE", "week": "13:00", "sat": ""}, {"address1_fr": "AVENUE DE L&#39;ATLANTIQUE 38", "address2_fr": "1150 WOLUWE-SAINT-PIERRE", "address1_nl": "ATLANTISCHE OCEAANLAAN 38", "address2_nl": "1150 SINT-PIETERS-WOLUWE", "id": "8225", "lat": "50.831281", "lng": "4.418725", "status": "ACTIVE", "week": "13:00", "sat": ""}, {"address1_fr": "AVENUE DE L&#39;ATOMIUM 6", "address2_fr": "1020 LAEKEN", "address1_nl": "ATOMIUMLAAN 6", "address2_nl": "1020 LAKEN", "id": "11273", "lat": "50.895861", "lng": "4.342991", "status": "ACTIVE", "week": "19:00", "sat": ""}, {"address1_fr": "AVENUE DE L&#39;AULNE 95", "address2_fr": "1180 UCCLE", "address1_nl": "ELZEBOOMLAAN 95", "address2_nl": "1180 UKKEL", "id": "6883", "lat": "50.802105", "lng": "4.330908", "status": "ACTIVE", "week": "10:00", "sat": ""}, {"address1_fr": "AVENUE DE L&#39;EMERAUDE 1/mei", "address2_fr": "1030 SCHAERBEEK", "address1_nl": "SMARAGDLAAN 1/mei", "address2_nl": "1030 SCHAARBEEK", "id": "7821", "lat": "50.85278", "lng": "4.395689", "status": "ACTIVE", "week": "10:00", "sat": ""}, {"address1_fr": "AVENUE DE L&#39;ESCRIME 2", "address2_fr": "1150 WOLUWE-SAINT-PIERRE", "address1_nl": "SCHERMLAAN 2", "address2_nl": "1150 SINT-PIETERS-WOLUWE", "id": "8232", "lat": "50.835874", "lng": "4.455815", "status": "ACTIVE", "week": "13:00", "sat": ""}, {"address1_fr": "AVENUE DE L&#39;ESPINETTE 16", "address2_fr": "1348 LOUVAIN-LA-NEUVE", "address1_nl": "AVENUE DE L&#39;ESPINETTE 16", "address2_nl": "1348 LOUVAIN-LA-NEUVE", "id": "14507", "lat": "50.665535", "lng": "4.616102", "status": "ACTIVE", "week": "10:00", "sat": ""}, {"address1_fr": "AVENUE DE L&#39;HÉLIPORT nov/15", "address2_fr": "1000 BRUXELLES", "address1_nl": "HELIHAVENLAAN nov/15", "address2_nl": "1000 BRUSSEL", "id": "7035", "lat": "50.860078", "lng": "4.352388", "status": "ACTIVE", "week": "10:00", "sat": ""}, {"address1_fr": "AVENUE DE L&#39;HIPPODROME 130", "address2_fr": "1050 IXELLES", "address1_nl": "RENBAANLAAN 130", "address2_nl": "1050 ELSENE", "id": "9395", "lat": "50.820681", "lng": "4.376859", "status": "ACTIVE", "week": "13:00", "sat": ""}, {"address1_fr": "AVENUE DE L&#39;IMPRESSIONNISME 1", "address2_fr": "1140 EVERE", "address1_nl": "IMPRESSIONNISMELAAN 1", "address2_nl": "1140 EVERE", "id": "11305", "lat": "50.87451", "lng": "4.408373", "status": "ACTIVE", "week": "13:00", "sat": ""}, {"address1_fr": "AVENUE DE L&#39;OBSERVATOIRE 1", "address2_fr": "1180 UCCLE", "address1_nl": "STERREWACHTLAAN 1", "address2_nl": "1180 UKKEL", "id": "6885", "lat": "50.805296", "lng": "4.372027", "status": "ACTIVE", "week": "13:00", "sat": ""}, {"address1_fr": "AVENUE DE L&#39;OPTIMISME 79", "address2_fr": "1140 EVERE", "address1_nl": "OPTIMISMELAAN 79", "address2_nl": "1140 EVERE", "id": "6671", "lat": "50.861347", "lng": "4.408406", "status": "ACTIVE", "week": "13:00", "sat": ""}, {"address1_fr": "AVENUE DE L&#39;ORÉE 10", "address2_fr": "1000 BRUXELLES", "address1_nl": "ZOOMLAAN 10", "address2_nl": "1000 BRUSSEL", "id": "8966", "lat": "50.80957116", "lng": "4.383666774", "status": "ACTIVE", "week": "10:00", "sat": ""}, {"address1_fr": "AVENUE DE L&#39;UNIVERSITÉ 78", "address2_fr": "1050 IXELLES", "address1_nl": "HOGESCHOOLLAAN 78", "address2_nl": "1050 ELSENE", "id": "9396", "lat": "50.814266", "lng": "4.386116", "status": "ACTIVE", "week": "13:00", "sat": ""}, {"address1_fr": "AVENUE DE L&#39;YSER 4", "address2_fr": "1040 ETTERBEEK", "address1_nl": "IJZERLAAN 4", "address2_nl": "1040 ETTERBEEK", "id": "2679", "lat": "50.840243", "lng": "4.397551", "status": "ACTIVE", "week": "10:00", "sat": ""}, {"address1_fr": "AVENUE DE LA BASILIQUE 365", "address2_fr": "1081 KOEKELBERG", "address1_nl": "BASILIEKLAAN 365", "address2_nl": "1081 KOEKELBERG", "id": "9648", "lat": "50.865824", "lng": "4.31247", "status": "ACTIVE", "week": "13:00", "sat": ""}, {"address1_fr": "AVENUE DE LA BRABANÇONNE 54", "address2_fr": "1000 BRUXELLES", "address1_nl": "BRABANCONNELAAN 54", "address2_nl": "1000 BRUSSEL", "id": "7034", "lat": "50.84938", "lng": "4.385585", "status": "ACTIVE", "week": "10:00", "sat": ""}, {"address1_fr": "AVENUE DE LA BRISE 13-15", "address2_fr": "1020 LAEKEN", "address1_nl": "BRIESLAAN 13-15", "address2_nl": "1020 LAKEN", "id": "16365", "lat": "50.897458", "lng": "4.358561", "status": "ACTIVE", "week": "17:00", "sat": ""}, {"address1_fr": "AVENUE DE LA CHARMILLE 12", "address2_fr": "1200 WOLUWE-SAINT-LAMBERT", "address1_nl": "HAAGBEUKENLAAN 12", "address2_nl": "1200 SINT-LAMBRECHTS-WOLUWE", "id": "8207", "lat": "50.853717", "lng": "4.431886", "status": "ACTIVE", "week": "10:00", "sat": ""}, {"address1_fr": "AVENUE DE LA CHASSE 88", "address2_fr": "1040 ETTERBEEK", "address1_nl": "JACHTLAAN 88", "address2_nl": "1040 ETTERBEEK", "id": "2668", "lat": "50.833141", "lng": "4.392126", "status": "ACTIVE", "week": "13:00", "sat": ""}, {"address1_fr": "AVENUE DE LA COURONNE 88-90", "address2_fr": "1050 IXELLES", "address1_nl": "KROONLAAN 88-90", "address2_nl": "1050 ELSENE", "id": "9408", "lat": "50.830155", "lng": "4.378651", "status": "ACTIVE", "week": "10:00", "sat": ""}, {"address1_fr": "AVENUE DE LA COURONNE 153", "address2_fr": "1050 IXELLES", "address1_nl": "KROONLAAN 153", "address2_nl": "1050 ELSENE", "id": "9391", "lat": "50.825566", "lng": "4.384149", "status": "ACTIVE", "week": "13:00", "sat": ""}, {"address1_fr": "AVENUE DE LA COURONNE 588", "address2_fr": "1050 IXELLES", "address1_nl": "KROONLAAN 588", "address2_nl": "1050 ELSENE", "id": "9393", "lat": "50.816843", "lng": "4.392354", "status": "ACTIVE", "week": "10:00", "sat": ""}, {"address1_fr": "AVENUE DE LA COURONNE 416", "address2_fr": "1050 IXELLES", "address1_nl": "KROONLAAN 416", "address2_nl": "1050 ELSENE", "id": "9392", "lat": "50.821736", "lng": "4.389133", "status": "ACTIVE", "week": "17:00", "sat": ""}, {"address1_fr": "AVENUE DE LA FAISANDERIE 1", "address2_fr": "1332 GENVAL", "address1_nl": "AVENUE DE LA FAISANDERIE 1", "address2_nl": "1332 GENVAL", "id": "8558", "lat": "50.728958", "lng": "4.499198", "status": "ACTIVE", "week": "10:00", "sat": ""}, {"address1_fr": "AVENUE DE LA FLORIDE 90", "address2_fr": "1180 UCCLE", "address1_nl": "FLORIDALAAN 90", "address2_nl": "1180 UKKEL", "id": "6881", "lat": "50.806696", "lng": "4.36643", "status": "ACTIVE", "week": "13:00", "sat": ""}, {"address1_fr": "AVENUE DE LA FORÊT 154", "address2_fr": "1000 BRUXELLES", "address1_nl": "WOUDLAAN 154", "address2_nl": "1000 BRUSSEL", "id": "8493", "lat": "50.800346", "lng": "4.394442", "status": "ACTIVE", "week": "13:00", "sat": ""}, {"address1_fr": "AVENUE DE LA GARE 1", "address2_fr": "1300 LIMAL", "address1_nl": "AVENUE DE LA GARE 1", "address2_nl": "1300 LIMAL", "id": "15406", "lat": "50.691499", "lng": "4.57515", "status": "ACTIVE", "week": "13:00", "sat": ""}, {"address1_fr": "AVENUE DE LA HOULETTE 76", "address2_fr": "1160 AUDERGHEM", "address1_nl": "HERDERSSTAFLAAN 76", "address2_nl": "1160 OUDERGEM", "id": "6557", "lat": "50.812618", "lng": "4.417479", "status": "ACTIVE", "week": "13:00", "sat": ""}, {"address1_fr": "AVENUE DE LA JONCTION 16", "address2_fr": "1060 SAINT-GILLES", "address1_nl": "VERBINDINGSLAAN 16", "address2_nl": "1060 SINT-GILLIS", "id": "16335", "lat": "50.820739", "lng": "4.350733", "status": "ACTIVE", "week": "13:00", "sat": ""}, {"address1_fr": "AVENUE DE LA NIVÉOLE 65", "address2_fr": "1020 LAEKEN", "address1_nl": "LENTEKLOKJESLAAN 65", "address2_nl": "1020 LAKEN", "id": "7117", "lat": "50.897006", "lng": "4.367616", "status": "ACTIVE", "week": "10:00", "sat": ""}, {"address1_fr": "AVENUE DE LA PERSPECTIVE 47", "address2_fr": "1150 WOLUWE-SAINT-PIERRE", "address1_nl": "PERSPECTIEFLAAN 47", "address2_nl": "1150 SINT-PIETERS-WOLUWE", "id": "8741", "lat": "50.84457", "lng": "4.462006", "status": "ACTIVE", "week": "13:00", "sat": ""}, {"address1_fr": "AVENUE DE LA PORTE DE HAL 1", "address2_fr": "1060 SAINT-GILLES", "address1_nl": "HALLEPOORTLAAN 1", "address2_nl": "1060 SINT-GILLIS", "id": "8055", "lat": "50.832456", "lng": "4.344706", "status": "ACTIVE", "week": "13:00", "sat": ""}, {"address1_fr": "AVENUE DE LA SAUVAGINE 1", "address2_fr": "1170 WATERMAEL-BOITSFORT", "address1_nl": "WATERWILDLAAN 1", "address2_nl": "1170 WATERMAAL-BOSVOORDE", "id": "11309", "lat": "50.809871", "lng": "4.403411", "status": "ACTIVE", "week": "13:00", "sat": ""}, {"address1_fr": "AVENUE DE LA TERRE FRANCHE 1", "address2_fr": "1325 CHAUMONT-GISTOUX", "address1_nl": "AVENUE DE LA TERRE FRANCHE 1", "address2_nl": "1325 CHAUMONT-GISTOUX", "id": "73888", "lat": "50.678496", "lng": "4.706259", "status": "ACTIVE", "week": "10:00", "sat": ""}, {"address1_fr": "AVENUE DE LA TOISON D&#39;OR 40-42", "address2_fr": "1050 IXELLES", "address1_nl": "GULDEN VLIESLAAN 40-42", "address2_nl": "1050 ELSENE", "id": "9772", "lat": "50.836095", "lng": "4.356832", "status": "ACTIVE", "week": "13:00", "sat": ""}, {"address1_fr": "AVENUE DE LA TOISON D&#39;OR 66", "address2_fr": "1060 SAINT-GILLES", "address1_nl": "GULDEN-VLIESLAAN 66", "address2_nl": "1060 SINT-GILLIS", "id": "8056", "lat": "50.834691", "lng": "4.353482", "status": "ACTIVE", "week": "13:00", "sat": ""}, {"address1_fr": "AVENUE DE LAEKEN 39", "address2_fr": "1090 JETTE", "address1_nl": "LAKENSE LAAN 39", "address2_nl": "1090 JETTE", "id": "10058", "lat": "50.871555", "lng": "4.323793", "status": "ACTIVE", "week": "13:00", "sat": ""}, {"address1_fr": "AVENUE DE LOTHIER 3", "address2_fr": "1150 WOLUWE-SAINT-PIERRE", "address1_nl": "LOTHARINGENLAAN 3", "address2_nl": "1150 SINT-PIETERS-WOLUWE", "id": "11807", "lat": "50.821059", "lng": "4.44156", "status": "ACTIVE", "week": "13:00", "sat": ""}, {"address1_fr": "AVENUE DE MERCURE 26", "address2_fr": "1180 UCCLE", "address1_nl": "MERCURIUSLAAN 26", "address2_nl": "1180 UKKEL", "id": "6886", "lat": "50.795049", "lng": "4.358441", "status": "ACTIVE", "week": "10:00", "sat": ""}, {"address1_fr": "AVENUE DE MÉRODE 4", "address2_fr": "1300 LIMAL", "address1_nl": "AVENUE DE MÉRODE 4", "address2_nl": "1300 LIMAL", "id": "8270", "lat": "50.712379", "lng": "4.549876", "status": "ACTIVE", "week": "13:00", "sat": ""}, {"address1_fr": "AVENUE DE MONTE CARLO 94", "address2_fr": "1190 FOREST", "address1_nl": "MONTE-CARLOLAAN 94", "address2_nl": "1190 VORST", "id": "6999", "lat": "50.8113", "lng": "4.322672", "status": "ACTIVE", "week": "10:00", "sat": ""}, {"address1_fr": "AVENUE DE NIVELLES 53", "address2_fr": "1300 LIMAL", "address1_nl": "AVENUE DE NIVELLES 53", "address2_nl": "1300 LIMAL", "id": "15403", "lat": "50.704461", "lng": "4.556842", "status": "ACTIVE", "week": "10:00", "sat": ""}, {"address1_fr": "AVENUE DE ROODEBEEK 269", "address2_fr": "1030 SCHAERBEEK", "address1_nl": "ROODEBEEKLAAN 269", "address2_nl": "1030 SCHAARBEEK", "id": "13460", "lat": "50.850207", "lng": "4.407867", "status": "ACTIVE", "week": "10:00", "sat": ""}, {"address1_fr": "AVENUE DE ROOVERE 24", "address2_fr": "1080 MOLENBEEK-SAINT-JEAN", "address1_nl": "DE ROOVERELAAN 24", "address2_nl": "1080 SINT-JANS-MOLENBEEK", "id": "9624", "lat": "50.848999", "lng": "4.320682", "status": "ACTIVE", "week": "13:00", "sat": ""}, {"address1_fr": "AVENUE DE STALINGRAD 4", "address2_fr": "1000 BRUXELLES", "address1_nl": "STALINGRADLAAN 4", "address2_nl": "1000 BRUSSEL", "id": "8494", "lat": "50.842322", "lng": "4.345446", "status": "ACTIVE", "week": "13:00", "sat": ""}, {"address1_fr": "AVENUE DE TERVUEREN 49", "address2_fr": "1040 ETTERBEEK", "address1_nl": "TERVURENLAAN 49", "address2_nl": "1040 ETTERBEEK", "id": "2675", "lat": "50.838518", "lng": "4.400897", "status": "ACTIVE", "week": "13:00", "sat": ""}, {"address1_fr": "AVENUE DE TERVUEREN 32-34", "address2_fr": "1040 ETTERBEEK", "address1_nl": "TERVURENLAAN 32-34", "address2_nl": "1040 ETTERBEEK", "id": "2694", "lat": "50.8385176", "lng": "4.4008966", "status": "ACTIVE", "week": "17:00", "sat": ""}, {"address1_fr": "AVENUE DE TERVUEREN 270-272", "address2_fr": "1150 WOLUWE-SAINT-PIERRE", "address1_nl": "TERVURENLAAN 270-272", "address2_nl": "1150 SINT-PIETERS-WOLUWE", "id": "16412", "lat": "50.83494", "lng": "4.421061", "status": "ACTIVE", "week": "10:00", "sat": ""}, {"address1_fr": "AVENUE DE TERVUEREN 433", "address2_fr": "1150 WOLUWE-SAINT-PIERRE", "address1_nl": "TERVURENLAAN 433", "address2_nl": "1150 SINT-PIETERS-WOLUWE", "id": "8227", "lat": "50.824619", "lng": "4.446114", "status": "ACTIVE", "week": "13:00", "sat": ""}, {"address1_fr": "AVENUE DE TERVUEREN 137", "address2_fr": "1150 WOLUWE-SAINT-PIERRE", "address1_nl": "TERVURENLAAN 137", "address2_nl": "1150 SINT-PIETERS-WOLUWE", "id": "8226", "lat": "50.837645", "lng": "4.40529", "status": "ACTIVE", "week": "10:00", "sat": ""}, {"address1_fr": "AVENUE DE TERVUEREN 332", "address2_fr": "1150 WOLUWE-SAINT-PIERRE", "address1_nl": "TERVURENLAAN 332", "address2_nl": "1150 SINT-PIETERS-WOLUWE", "id": "43103", "lat": "50.834048", "lng": "4.43119", "status": "ACTIVE", "week": "10:00", "sat": ""}, {"address1_fr": "AVENUE DE VERSAILLES 131", "address2_fr": "1120 NEDER-OVER-HEEMBEEK", "address1_nl": "VERSAILLESLAAN 131", "address2_nl": "1120 NEDER-OVER-HEEMBEEK", "id": "7118", "lat": "50.896351", "lng": "4.374045", "status": "ACTIVE", "week": "13:00", "sat": ""}, {"address1_fr": "AVENUE DE WOLUWE-SAINT-LAMBERT 2", "address2_fr": "1200 WOLUWE-SAINT-LAMBERT", "address1_nl": "SINT-LAMBRECHTS-WOLUWELAAN 2", "address2_nl": "1200 SINT-LAMBRECHTS-WOLUWE", "id": "8208", "lat": "50.840263", "lng": "4.412055", "status": "ACTIVE", "week": "10:00", "sat": ""}, {"address1_fr": "AVENUE DES ABLETTES 28", "address2_fr": "1160 AUDERGHEM", "address1_nl": "WITVISSENLAAN 28", "address2_nl": "1160 OUDERGEM", "id": "6558", "lat": "50.813716", "lng": "4.407692", "status": "ACTIVE", "week": "10:00", "sat": ""}, {"address1_fr": "AVENUE DES ANCIENS COMBATTANTS 90A", "address2_fr": "1140 EVERE", "address1_nl": "OUD-STRIJDERSLAAN 90A", "address2_nl": "1140 EVERE", "id": "31243", "lat": "50.863372", "lng": "4.410751", "status": "ACTIVE", "week": "10:00", "sat": ""}, {"address1_fr": "AVENUE DES ARTS 31", "address2_fr": "1000 BRUXELLES", "address1_nl": "KUNSTLAAN 31", "address2_nl": "1000 BRUSSEL", "id": "2677", "lat": "50.8442", "lng": "4.368152", "status": "ACTIVE", "week": "13:00", "sat": ""}, {"address1_fr": "AVENUE DES ARTS 31", "address2_fr": "1000 BRUXELLES", "address1_nl": "KUNSTLAAN 31", "address2_nl": "1000 BRUSSEL", "id": "2678", "lat": "50.8442", "lng": "4.368152", "status": "ACTIVE", "week": "13:00", "sat": ""}, {"address1_fr": "AVENUE DES CAPUCINES 4", "address2_fr": "1030 SCHAERBEEK", "address1_nl": "KAPUCIJNBLOEMENLAAN 4", "address2_nl": "1030 SCHAARBEEK", "id": "8445", "lat": "50.865091", "lng": "4.385818", "status": "ACTIVE", "week": "10:00", "sat": ""}, {"address1_fr": "AVENUE DES CERISIERS 78", "address2_fr": "1030 SCHAERBEEK", "address1_nl": "KERSELARENLAAN 78", "address2_nl": "1030 SCHAARBEEK", "id": "7667", "lat": "50.848117", "lng": "4.408069", "status": "ACTIVE", "week": "13:00", "sat": ""}, {"address1_fr": "AVENUE DES CLOS 1", "address2_fr": "1030 SCHAERBEEK", "address1_nl": "GAARDENLAAN 1", "address2_nl": "1030 SCHAARBEEK", "id": "7668", "lat": "50.860908", "lng": "4.401071", "status": "ACTIVE", "week": "13:00", "sat": ""}, {"address1_fr": "AVENUE DES COCCINELLES 77", "address2_fr": "1170 WATERMAEL-BOITSFORT", "address1_nl": "ONZE-LIEVE-HEERSBEESTJESLAAN 77", "address2_nl": "1170 WATERMAAL-BOSVOORDE", "id": "6579", "lat": "50.798029", "lng": "4.401846", "status": "ACTIVE", "week": "13:00", "sat": ""}, {"address1_fr": "AVENUE DES COMBATTANTS 193", "address2_fr": "1332 GENVAL", "address1_nl": "AVENUE DES COMBATTANTS 193", "address2_nl": "1332 GENVAL", "id": "14049", "lat": "50.721743", "lng": "4.509397", "status": "ACTIVE", "week": "10:00", "sat": ""}, {"address1_fr": "AVENUE DES COMMANDANTS BORLÉE 42", "address2_fr": "1370 JODOIGNE", "address1_nl": "AVENUE DES COMMANDANTS BORLÉE 42", "address2_nl": "1370 JODOIGNE", "id": "8574", "lat": "50.722271", "lng": "4.874008", "status": "ACTIVE", "week": "17:00", "sat": ""}, {"address1_fr": "AVENUE DES COMMUNAUTÉS 101-103", "address2_fr": "1200 WOLUWE-SAINT-LAMBERT", "address1_nl": "GEMEENSCHAPPENLAAN 101-103", "address2_nl": "1200 SINT-LAMBRECHTS-WOLUWE", "id": "10880", "lat": "50.856574", "lng": "4.42668", "status": "ACTIVE", "week": "13:00", "sat": ""}, {"address1_fr": "AVENUE DES CONSTELLATIONS 22", "address2_fr": "1200 WOLUWE-SAINT-LAMBERT", "address1_nl": "STERREBEELDENLAAN 22", "address2_nl": "1200 SINT-LAMBRECHTS-WOLUWE", "id": "8209", "lat": "50.851643", "lng": "4.415887", "status": "ACTIVE", "week": "10:00", "sat": ""}, {"address1_fr": "AVENUE DES COURSES 4", "address2_fr": "1050 IXELLES", "address1_nl": "WEDRENNENLAAN 4", "address2_nl": "1050 ELSENE", "id": "89128", "lat": "50.815992", "lng": "4.378234", "status": "ACTIVE", "week": "10:00", "sat": ""}, {"address1_fr": "AVENUE DES DÉPORTÉS 48", "address2_fr": "1367 GEEST-GÉROMPONT-PETIT-ROSIÈRE", "address1_nl": "AVENUE DES DÉPORTÉS 48", "address2_nl": "1367 GEEST-GÉROMPONT-PETIT-ROSIÈRE", "id": "8293", "lat": "50.644329", "lng": "4.870891", "status": "ACTIVE", "week": "10:00", "sat": ""}, {"address1_fr": "AVENUE DES DEUX TILLEULS 2", "address2_fr": "1200 WOLUWE-SAINT-LAMBERT", "address1_nl": "TWEELINDENLAAN 2", "address2_nl": "1200 SINT-LAMBRECHTS-WOLUWE", "id": "8210", "lat": "50.839548", "lng": "4.404745", "status": "ACTIVE", "week": "10:00", "sat": ""}, {"address1_fr": "AVENUE DES DRYADES 28", "address2_fr": "1170 WATERMAEL-BOITSFORT", "address1_nl": "BOSNIMFENLAAN 28", "address2_nl": "1170 WATERMAAL-BOSVOORDE", "id": "11311", "lat": "50.804039", "lng": "4.415248", "status": "ACTIVE", "week": "10:00", "sat": ""}, {"address1_fr": "AVENUE DES EGLANTIERS 21", "address2_fr": "1180 UCCLE", "address1_nl": "WILDEROSELAARSLAAN 21", "address2_nl": "1180 UKKEL", "id": "7516", "lat": "50.782767", "lng": "4.37187", "status": "ACTIVE", "week": "10:00", "sat": ""}, {"address1_fr": "AVENUE DES FRÈRES GOEMAERE 52", "address2_fr": "1160 AUDERGHEM", "address1_nl": "GEBROEDERS GOEMAERELAAN 52", "address2_nl": "1160 OUDERGEM", "id": "10387", "lat": "50.809842", "lng": "4.436433", "status": "ACTIVE", "week": "13:00", "sat": ""}, {"address1_fr": "AVENUE DES FRÈRES LEGRAIN 82", "address2_fr": "1150 WOLUWE-SAINT-PIERRE", "address1_nl": "GEBROEDERS LEGRAINLAAN 82", "address2_nl": "1150 SINT-PIETERS-WOLUWE", "id": "16784", "lat": "50.826054", "lng": "4.412739", "status": "ACTIVE", "week": "13:00", "sat": ""}, {"address1_fr": "AVENUE DES GLOIRES NATIONALES 29", "address2_fr": "1083 GANSHOREN", "address1_nl": "LANDSROEMLAAN 29", "address2_nl": "1083 GANSHOREN", "id": "9664", "lat": "50.866116", "lng": "4.324154", "status": "ACTIVE", "week": "13:00", "sat": ""}, {"address1_fr": "AVENUE DES GRANDS PRIX 140", "address2_fr": "1150 WOLUWE-SAINT-PIERRE", "address1_nl": "GROTE PRIJZENLAAN 140", "address2_nl": "1150 SINT-PIETERS-WOLUWE", "id": "8228", "lat": "50.831428", "lng": "4.461466", "status": "ACTIVE", "week": "10:00", "sat": ""}, {"address1_fr": "AVENUE DES HANNETONS 41", "address2_fr": "1170 WATERMAEL-BOITSFORT", "address1_nl": "MEIKEVERSLAAN 41", "address2_nl": "1170 WATERMAAL-BOSVOORDE", "id": "6582", "lat": "50.810151", "lng": "4.411735", "status": "ACTIVE", "week": "13:00", "sat": ""}, {"address1_fr": "AVENUE DES HOSPICES 7", "address2_fr": "1180 UCCLE", "address1_nl": "GODSHUIZENLAAN 7", "address2_nl": "1180 UKKEL", "id": "7687", "lat": "50.777774", "lng": "4.354105", "status": "ACTIVE", "week": "13:00", "sat": ""}, {"address1_fr": "AVENUE DES IMMORTELLES 3", "address2_fr": "1070 ANDERLECHT", "address1_nl": "STROBLOEMENLAAN 3", "address2_nl": "1070 ANDERLECHT", "id": "56390", "lat": "50.816723", "lng": "4.282355", "status": "ACTIVE", "week": "13:00", "sat": ""}, {"address1_fr": "AVENUE DES JACINTHES 19", "address2_fr": "1030 SCHAERBEEK", "address1_nl": "HYACINTENLAAN 19", "address2_nl": "1030 SCHAARBEEK", "id": "7822", "lat": "50.863055", "lng": "4.389367", "status": "ACTIVE", "week": "13:00", "sat": ""}, {"address1_fr": "AVENUE DES LOISIRS 9", "address2_fr": "1140 EVERE", "address1_nl": "VRIJETIJDSLAAN 9", "address2_nl": "1140 EVERE", "id": "6402", "lat": "50.866971", "lng": "4.404599", "status": "ACTIVE", "week": "13:00", "sat": ""}, {"address1_fr": "AVENUE DES MAGNOLIAS 28", "address2_fr": "1020 LAEKEN", "address1_nl": "MAGNOLIALAAN 28", "address2_nl": "1020 LAKEN", "id": "8524", "lat": "50.900522", "lng": "4.33099", "status": "ACTIVE", "week": "13:00", "sat": ""}, {"address1_fr": "AVENUE DES MESPELIERS 1", "address2_fr": "1348 LOUVAIN-LA-NEUVE", "address1_nl": "AVENUE DES MESPELIERS 1", "address2_nl": "1348 LOUVAIN-LA-NEUVE", "id": "9262", "lat": "50.674662", "lng": "4.616419", "status": "ACTIVE", "week": "10:00", "sat": ""}, {"address1_fr": "AVENUE DES MISSIONNAIRES 52", "address2_fr": "1070 ANDERLECHT", "address1_nl": "MISSIONARISSENLAAN 52", "address2_nl": "1070 ANDERLECHT", "id": "7698", "lat": "50.849543", "lng": "4.307192", "status": "ACTIVE", "week": "13:00", "sat": ""}, {"address1_fr": "AVENUE DES NERVIENS sep/31", "address2_fr": "1040 ETTERBEEK", "address1_nl": "NERVIËRSLAAN sep/31", "address2_nl": "1040 ETTERBEEK", "id": "2642", "lat": "50.839447", "lng": "4.385787", "status": "ACTIVE", "week": "13:00", "sat": ""}, {"address1_fr": "AVENUE DES ORTOLANS 1", "address2_fr": "1170 WATERMAEL-BOITSFORT", "address1_nl": "ORTOLANENLAAN 1", "address2_nl": "1170 WATERMAAL-BOSVOORDE", "id": "6583", "lat": "50.802757", "lng": "4.41302", "status": "ACTIVE", "week": "13:00", "sat": ""}, {"address1_fr": "AVENUE DES PAGODES 146", "address2_fr": "1020 LAEKEN", "address1_nl": "PAGODENLAAN 146", "address2_nl": "1020 LAKEN", "id": "7119", "lat": "50.89235", "lng": "4.371598", "status": "ACTIVE", "week": "13:00", "sat": ""}, {"address1_fr": "AVENUE DES PAGODES 343", "address2_fr": "1020 LAEKEN", "address1_nl": "PAGODENLAAN 343", "address2_nl": "1020 LAKEN", "id": "7120", "lat": "50.89599", "lng": "4.363022", "status": "ACTIVE", "week": "13:00", "sat": ""}, {"address1_fr": "AVENUE DES PLÉIADES 54", "address2_fr": "1200 WOLUWE-SAINT-LAMBERT", "address1_nl": "PLEJADENLAAN 54", "address2_nl": "1200 SINT-LAMBRECHTS-WOLUWE", "id": "8211", "lat": "50.854697", "lng": "4.420546", "status": "ACTIVE", "week": "10:00", "sat": ""}, {"address1_fr": "AVENUE DES PLÉIADES 59", "address2_fr": "1300 LIMAL", "address1_nl": "AVENUE DES PLÉIADES 59", "address2_nl": "1300 LIMAL", "id": "11321", "lat": "50.709334", "lng": "4.561419", "status": "ACTIVE", "week": "10:00", "sat": ""}, {"address1_fr": "AVENUE DES ROSSIGNOLS 2", "address2_fr": "1341 CÉROUX-MOUSTY", "address1_nl": "AVENUE DES ROSSIGNOLS 2", "address2_nl": "1341 CÉROUX-MOUSTY", "id": "14052", "lat": "50.650399", "lng": "4.546083", "status": "ACTIVE", "week": "10:00", "sat": ""}, {"address1_fr": "AVENUE DES SAISONS 127", "address2_fr": "1050 IXELLES", "address1_nl": "JAARGETIJDENLAAN 127", "address2_nl": "1050 ELSENE", "id": "9863", "lat": "50.81762", "lng": "4.388337", "status": "ACTIVE", "week": "13:00", "sat": ""}, {"address1_fr": "AVENUE DES SEPT BONNIERS 227", "address2_fr": "1190 FOREST", "address1_nl": "ZEVENBUNDERLAAN 227", "address2_nl": "1190 VORST", "id": "8401", "lat": "50.808759", "lng": "4.331349", "status": "ACTIVE", "week": "13:00", "sat": ""}, {"address1_fr": "AVENUE DES TILLEULS 24", "address2_fr": "1180 UCCLE", "address1_nl": "LINDENLAAN 24", "address2_nl": "1180 UKKEL", "id": "6921", "lat": "50.776796", "lng": "4.338781", "status": "ACTIVE", "week": "13:00", "sat": ""}, {"address1_fr": "AVENUE DES TOURTERELLES 18", "address2_fr": "1360 PERWEZ", "address1_nl": "AVENUE DES TOURTERELLES 18", "address2_nl": "1360 PERWEZ", "id": "47543", "lat": "50.623052", "lng": "4.809032", "status": "ACTIVE", "week": "10:00", "sat": ""}, {"address1_fr": "AVENUE DES VILLAS 4A", "address2_fr": "1060 SAINT-GILLES", "address1_nl": "VILLALAAN 4A", "address2_nl": "1060 SINT-GILLIS", "id": "8057", "lat": "50.824824", "lng": "4.343063", "status": "ACTIVE", "week": "13:00", "sat": ""}, {"address1_fr": "AVENUE DES VILLAS 14", "address2_fr": "1340 OTTIGNIES", "address1_nl": "AVENUE DES VILLAS 14", "address2_nl": "1340 OTTIGNIES", "id": "16982", "lat": "50.670633", "lng": "4.567699", "status": "ACTIVE", "week": "10:00", "sat": ""}, {"address1_fr": "AVENUE DES VOLONTAIRES 165", "address2_fr": "1150 WOLUWE-SAINT-PIERRE", "address1_nl": "VRIJWILLIGERSLAAN 165", "address2_nl": "1150 SINT-PIETERS-WOLUWE", "id": "8436", "lat": "50.827527", "lng": "4.405578", "status": "ACTIVE", "week": "10:00", "sat": ""}, {"address1_fr": "AVENUE DES VOLONTAIRES 79", "address2_fr": "1160 AUDERGHEM", "address1_nl": "VRIJWILLIGERSLAAN 79", "address2_nl": "1160 OUDERGEM", "id": "6550", "lat": "50.826174", "lng": "4.4025", "status": "ACTIVE", "week": "10:00", "sat": ""}, {"address1_fr": "AVENUE DOCTEUR DEJASE 22", "address2_fr": "1030 SCHAERBEEK", "address1_nl": "DOKTER DEJASELAAN 22", "address2_nl": "1030 SCHAARBEEK", "id": "7836", "lat": "50.869194", "lng": "4.389452", "status": "ACTIVE", "week": "13:00", "sat": ""}, {"address1_fr": "AVENUE DOCTEUR ZAMENHOF 35", "address2_fr": "1070 ANDERLECHT", "address1_nl": "DOKTER ZAMENHOFLAAN 35", "address2_nl": "1070 ANDERLECHT", "id": "7722", "lat": "50.828093", "lng": "4.305674", "status": "ACTIVE", "week": "10:00", "sat": ""}, {"address1_fr": "AVENUE DOLEZ 136", "address2_fr": "1180 UCCLE", "address1_nl": "DOLEZLAAN 136", "address2_nl": "1180 UKKEL", "id": "6922", "lat": "50.788171", "lng": "4.359088", "status": "ACTIVE", "week": "13:00", "sat": ""}, {"address1_fr": "AVENUE DROITS DE L&#39;HOMME 1", "address2_fr": "1070 ANDERLECHT", "address1_nl": "MENSENRECHTENLAAN 1", "address2_nl": "1070 ANDERLECHT", "id": "53103", "lat": "50.820778", "lng": "4.29384", "status": "ACTIVE", "week": "13:00", "sat": ""}, {"address1_fr": "AVENUE DU BRÉSIL 2", "address2_fr": "1000 BRUXELLES", "address1_nl": "BRAZILIELAAN 2", "address2_nl": "1000 BRUSSEL", "id": "8496", "lat": "50.802764", "lng": "4.389093", "status": "ACTIVE", "week": "13:00", "sat": ""}, {"address1_fr": "AVENUE DU CERF-VOLANT 1", "address2_fr": "1170 WATERMAEL-BOITSFORT", "address1_nl": "VLIEGERLAAN 1", "address2_nl": "1170 WATERMAAL-BOSVOORDE", "id": "11312", "lat": "50.804337", "lng": "4.409131", "status": "ACTIVE", "week": "10:00", "sat": ""}, {"address1_fr": "AVENUE DU CHANT D&#39;OISEAU 2", "address2_fr": "1150 WOLUWE-SAINT-PIERRE", "address1_nl": "VOGELZANGLAAN 2", "address2_nl": "1150 SINT-PIETERS-WOLUWE", "id": "8240", "lat": "50.826824", "lng": "4.418076", "status": "ACTIVE", "week": "13:00", "sat": ""}, {"address1_fr": "AVENUE DU CIMETIÈRE DE BRUXELLES 35", "address2_fr": "1140 EVERE", "address1_nl": "KERKHOF VAN BRUSSELLAAN 35", "address2_nl": "1140 EVERE", "id": "6404", "lat": "50.859947", "lng": "4.415013", "status": "ACTIVE", "week": "13:00", "sat": ""}, {"address1_fr": "AVENUE DU DIAMANT 199", "address2_fr": "1030 SCHAERBEEK", "address1_nl": "DIAMANTLAAN 199", "address2_nl": "1030 SCHAARBEEK", "id": "7823", "lat": "50.84936", "lng": "4.401715", "status": "ACTIVE", "week": "13:00", "sat": ""}, {"address1_fr": "AVENUE DU DIAMANT 149", "address2_fr": "1030 SCHAERBEEK", "address1_nl": "DIAMANTLAAN 149", "address2_nl": "1030 SCHAARBEEK", "id": "7669", "lat": "50.850063", "lng": "4.398696", "status": "ACTIVE", "week": "10:00", "sat": ""}, {"address1_fr": "AVENUE DU DOMAINE 167-169", "address2_fr": "1190 FOREST", "address1_nl": "DOMEINLAAN 167-169", "address2_nl": "1190 VORST", "id": "16661", "lat": "50.812522", "lng": "4.329444", "status": "ACTIVE", "week": "13:00", "sat": ""}, {"address1_fr": "AVENUE DU GARDON 1", "address2_fr": "1160 AUDERGHEM", "address1_nl": "VOORNLAAN 1", "address2_nl": "1160 OUDERGEM", "id": "6559", "lat": "50.81254", "lng": "4.409466", "status": "ACTIVE", "week": "10:00", "sat": ""}, {"address1_fr": "AVENUE DU GÉNÉRAL DE GAULLE 60", "address2_fr": "1050 IXELLES", "address1_nl": "GENERAAL DE GAULLELAAN 60", "address2_nl": "1050 ELSENE", "id": "9412", "lat": "50.820624", "lng": "4.373246", "status": "ACTIVE", "week": "13:00", "sat": ""}, {"address1_fr": "AVENUE DU GÉNÉRAL DE GAULLE 26", "address2_fr": "1050 IXELLES", "address1_nl": "GENERAAL DE GAULLELAAN 26", "address2_nl": "1050 ELSENE", "id": "9411", "lat": "50.825446", "lng": "4.371179", "status": "ACTIVE", "week": "13:00", "sat": ""}, {"address1_fr": "AVENUE DU GLOBE 57", "address2_fr": "1190 FOREST", "address1_nl": "GLOBELAAN 57", "address2_nl": "1190 VORST", "id": "16660", "lat": "50.807244", "lng": "4.326507", "status": "ACTIVE", "week": "10:00", "sat": ""}, {"address1_fr": "AVENUE DU HAUT-PONT 8", "address2_fr": "1060 SAINT-GILLES", "address1_nl": "HOGE BRUGLAAN 8", "address2_nl": "1060 SINT-GILLIS", "id": "8485", "lat": "50.820857", "lng": "4.352955", "status": "ACTIVE", "week": "10:00", "sat": ""}, {"address1_fr": "AVENUE DU HOUX 38", "address2_fr": "1170 WATERMAEL-BOITSFORT", "address1_nl": "HULSTLAAN 38", "address2_nl": "1170 WATERMAAL-BOSVOORDE", "id": "89410", "lat": "50.804587", "lng": "4.423419", "status": "ACTIVE", "week": "10:00", "sat": ""}, {"address1_fr": "AVENUE DU KARREVELD 5", "address2_fr": "1080 MOLENBEEK-SAINT-JEAN", "address1_nl": "KARREVELDLAAN 5", "address2_nl": "1080 SINT-JANS-MOLENBEEK", "id": "9626", "lat": "50.858141", "lng": "4.318578", "status": "ACTIVE", "week": "13:00", "sat": ""}, {"address1_fr": "AVENUE DU KARREVELD 46", "address2_fr": "1080 MOLENBEEK-SAINT-JEAN", "address1_nl": "KARREVELDLAAN 46", "address2_nl": "1080 SINT-JANS-MOLENBEEK", "id": "9625", "lat": "50.861176", "lng": "4.317169", "status": "ACTIVE", "week": "13:00", "sat": ""}, {"address1_fr": "AVENUE DU LAERBEEK 107", "address2_fr": "1090 JETTE", "address1_nl": "LAARBEEKLAAN 107", "address2_nl": "1090 JETTE", "id": "9669", "lat": "50.883946", "lng": "4.308404", "status": "ACTIVE", "week": "10:00", "sat": ""}, {"address1_fr": "AVENUE DU LAERBEEK 101", "address2_fr": "1090 JETTE", "address1_nl": "LAARBEEKLAAN 101", "address2_nl": "1090 JETTE", "id": "10048", "lat": "50.885929", "lng": "4.310629", "status": "ACTIVE", "week": "13:00", "sat": ""}, {"address1_fr": "AVENUE DU MARLY 48", "address2_fr": "1120 NEDER-OVER-HEEMBEEK", "address1_nl": "MARLYLAAN 48", "address2_nl": "1120 NEDER-OVER-HEEMBEEK", "id": "8425", "lat": "50.898463", "lng": "4.401769", "status": "ACTIVE", "week": "10:00", "sat": ""}, {"address1_fr": "AVENUE DU PANTHÉON 31", "address2_fr": "1081 KOEKELBERG", "address1_nl": "PANTHEONLAAN 31", "address2_nl": "1081 KOEKELBERG", "id": "9994", "lat": "50.864259", "lng": "4.322935", "status": "ACTIVE", "week": "10:00", "sat": ""}, {"address1_fr": "AVENUE DU PARC ROYAL 65", "address2_fr": "1020 LAEKEN", "address1_nl": "KONINKLIJK PARKLAAN 65", "address2_nl": "1020 LAKEN", "id": "8525", "lat": "50.888778", "lng": "4.356595", "status": "ACTIVE", "week": "10:00", "sat": ""}, {"address1_fr": "AVENUE DU PÉROU 65", "address2_fr": "1000 BRUXELLES", "address1_nl": "PERULAAN 65", "address2_nl": "1000 BRUSSEL", "id": "16666", "lat": "50.798429", "lng": "4.397837", "status": "ACTIVE", "week": "10:00", "sat": ""}, {"address1_fr": "AVENUE DU PORT 108-110", "address2_fr": "1000 BRUXELLES", "address1_nl": "HAVENLAAN 108-110", "address2_nl": "1000 BRUSSEL", "id": "7039", "lat": "50.868759", "lng": "4.353236", "status": "ACTIVE", "week": "13:00", "sat": ""}, {"address1_fr": "AVENUE DU PRINCE D&#39;ORANGE 6", "address2_fr": "1180 UCCLE", "address1_nl": "PRINS VAN ORANJELAAN 6", "address2_nl": "1180 UKKEL", "id": "6923", "lat": "50.78056", "lng": "4.380123", "status": "ACTIVE", "week": "13:00", "sat": ""}, {"address1_fr": "AVENUE DU ROI ALBERT 78", "address2_fr": "1082 BERCHEM-SAINTE-AGATHE", "address1_nl": "KONING ALBERTLAAN 78", "address2_nl": "1082 SINT-AGATHA-BERCHEM", "id": "9654", "lat": "50.865343", "lng": "4.2926", "status": "ACTIVE", "week": "13:00", "sat": ""}, {"address1_fr": "AVENUE DU ROI ALBERT 272", "address2_fr": "1082 BERCHEM-SAINTE-AGATHE", "address1_nl": "KONING ALBERTLAAN 272", "address2_nl": "1082 SINT-AGATHA-BERCHEM", "id": "9653", "lat": "50.866942", "lng": "4.28212", "status": "ACTIVE", "week": "13:00", "sat": ""}, {"address1_fr": "AVENUE DU ROI SOLDAT 73", "address2_fr": "1070 ANDERLECHT", "address1_nl": "KONING SOLDAATLAAN 73", "address2_nl": "1070 ANDERLECHT", "id": "7699", "lat": "50.830617", "lng": "4.297285", "status": "ACTIVE", "week": "13:00", "sat": ""}, {"address1_fr": "AVENUE DU SACRÉ COEUR 2", "address2_fr": "1090 JETTE", "address1_nl": "HEILIG-HARTLAAN 2", "address2_nl": "1090 JETTE", "id": "9687", "lat": "50.882788", "lng": "4.330706", "status": "ACTIVE", "week": "10:00", "sat": ""}, {"address1_fr": "AVENUE DU SOLDAT BRITANNIQUE 1", "address2_fr": "1070 ANDERLECHT", "address1_nl": "BRITSE SOLDAATLAAN 1", "address2_nl": "1070 ANDERLECHT", "id": "7700", "lat": "50.814353", "lng": "4.281501", "status": "ACTIVE", "week": "13:00", "sat": ""}, {"address1_fr": "AVENUE DUCPÉTIAUX 135", "address2_fr": "1060 SAINT-GILLES", "address1_nl": "DUCPÉTIAUXLAAN 135", "address2_nl": "1060 SINT-GILLIS", "id": "8059", "lat": "50.822142", "lng": "4.344676", "status": "ACTIVE", "week": "13:00", "sat": ""}, {"address1_fr": "AVENUE DUCPÉTIAUX 55", "address2_fr": "1060 SAINT-GILLES", "address1_nl": "DUCPÉTIAUXLAAN 55", "address2_nl": "1060 SINT-GILLIS", "id": "8058", "lat": "50.823373", "lng": "4.350933", "status": "ACTIVE", "week": "10:00", "sat": ""}, {"address1_fr": "AVENUE EDMOND MESENS 2", "address2_fr": "1040 ETTERBEEK", "address1_nl": "EDMOND MESENSLAAN 2", "address2_nl": "1040 ETTERBEEK", "id": "2666", "lat": "50.831749", "lng": "4.406975", "status": "ACTIVE", "week": "10:00", "sat": ""}, {"address1_fr": "AVENUE EDMOND MESENS 72", "address2_fr": "1040 ETTERBEEK", "address1_nl": "EDMOND MESENSLAAN 72", "address2_nl": "1040 ETTERBEEK", "id": "2690", "lat": "50.829993", "lng": "4.408181", "status": "ACTIVE", "week": "10:00", "sat": ""}, {"address1_fr": "AVENUE EDMOND PARMENTIER 120", "address2_fr": "1150 WOLUWE-SAINT-PIERRE", "address1_nl": "EDMOND PARMENTIERLAAN 120", "address2_nl": "1150 SINT-PIETERS-WOLUWE", "id": "11806", "lat": "50.831591", "lng": "4.443564", "status": "ACTIVE", "week": "13:00", "sat": ""}, {"address1_fr": "AVENUE EDMOND PARMENTIER 18", "address2_fr": "1150 WOLUWE-SAINT-PIERRE", "address1_nl": "EDMOND PARMENTIERLAAN 18", "address2_nl": "1150 SINT-PIETERS-WOLUWE", "id": "8241", "lat": "50.831524", "lng": "4.436659", "status": "ACTIVE", "week": "13:00", "sat": ""}, {"address1_fr": "AVENUE EMILE DE BECO 29-35", "address2_fr": "1050 IXELLES", "address1_nl": "EMILE DE BECOLAAN 29-35", "address2_nl": "1050 ELSENE", "id": "9864", "lat": "50.822871", "lng": "4.381425", "status": "ACTIVE", "week": "10:00", "sat": ""}, {"address1_fr": "AVENUE EMILE MAX 172", "address2_fr": "1030 SCHAERBEEK", "address1_nl": "EMILE MAXLAAN 172", "address2_nl": "1030 SCHAARBEEK", "id": "8447", "lat": "50.85180283", "lng": "4.39975071", "status": "ACTIVE", "week": "10:00", "sat": ""}, {"address1_fr": "AVENUE EMILE VERHAEREN 82", "address2_fr": "1030 SCHAERBEEK", "address1_nl": "EMILE VERHAERENLAAN 82", "address2_nl": "1030 SCHAARBEEK", "id": "7824", "lat": "50.874116", "lng": "4.382454", "status": "ACTIVE", "week": "13:00", "sat": ""}, {"address1_fr": "AVENUE EMMANUEL MOUNIER 10", "address2_fr": "1200 WOLUWE-SAINT-LAMBERT", "address1_nl": "EMMANUEL MOUNIERLAAN 10", "address2_nl": "1200 SINT-LAMBRECHTS-WOLUWE", "id": "8235", "lat": "50.851649", "lng": "4.449671", "status": "ACTIVE", "week": "10:00", "sat": ""}, {"address1_fr": "AVENUE ERNEST SOLVAY 53", "address2_fr": "1310 LA HULPE", "address1_nl": "AVENUE ERNEST SOLVAY 53", "address2_nl": "1310 LA HULPE", "id": "12631", "lat": "50.740764", "lng": "4.482286", "status": "ACTIVE", "week": "10:00", "sat": ""}, {"address1_fr": "AVENUE EUGÈNE PLASKY 191", "address2_fr": "1030 SCHAERBEEK", "address1_nl": "EUGÈNE PLASKYLAAN 191", "address2_nl": "1030 SCHAARBEEK", "id": "7834", "lat": "50.853918", "lng": "4.397988", "status": "ACTIVE", "week": "13:00", "sat": ""}, {"address1_fr": "AVENUE FLEMING 2", "address2_fr": "1300 WAVRE", "address1_nl": "AVENUE FLEMING 2", "address2_nl": "1300 WAVRE", "id": "8267", "lat": "50.736428", "lng": "4.603269", "status": "ACTIVE", "week": "17:00", "sat": ""}, {"address1_fr": "AVENUE FONSNY 47", "address2_fr": "1060 SAINT-GILLES", "address1_nl": "FONSNYLAAN 47", "address2_nl": "1060 SINT-GILLIS", "id": "8495", "lat": "50.836042", "lng": "4.338213", "status": "ACTIVE", "week": "13:00", "sat": ""}, {"address1_fr": "AVENUE FRANÇOIS ELIE VAN ELDEREN 6", "address2_fr": "1160 AUDERGHEM", "address1_nl": "FRANÇOIS ELIE VAN ELDERENLAAN 6", "address2_nl": "1160 OUDERGEM", "id": "11808", "lat": "50.812373", "lng": "4.436895", "status": "ACTIVE", "week": "10:00", "sat": ""}, {"address1_fr": "AVENUE FRANÇOIS PEETERS 18", "address2_fr": "1150 WOLUWE-SAINT-PIERRE", "address1_nl": "FRANÇOIS PEETERSLAAN 18", "address2_nl": "1150 SINT-PIETERS-WOLUWE", "id": "8437", "lat": "50.837633", "lng": "4.464312", "status": "ACTIVE", "week": "13:00", "sat": ""}, {"address1_fr": "AVENUE FRANKLIN 1", "address2_fr": "1300 WAVRE", "address1_nl": "AVENUE FRANKLIN 1", "address2_nl": "1300 WAVRE", "id": "8548", "lat": "50.735654", "lng": "4.585453", "status": "ACTIVE", "week": "17:00", "sat": ""}, {"address1_fr": "AVENUE FRANS VAN KALKEN 5", "address2_fr": "1070 ANDERLECHT", "address1_nl": "FRANS VAN KALKENLAAN 5", "address2_nl": "1070 ANDERLECHT", "id": "8234", "lat": "50.826637", "lng": "4.304793", "status": "ACTIVE", "week": "10:00", "sat": ""}, {"address1_fr": "AVENUE GABRIEL EMILE LEBON 84", "address2_fr": "1160 AUDERGHEM", "address1_nl": "GABRIEL EMILE LEBONLAAN 84", "address2_nl": "1160 OUDERGEM", "id": "6562", "lat": "50.823578", "lng": "4.408674", "status": "ACTIVE", "week": "13:00", "sat": ""}, {"address1_fr": "AVENUE GÉNÉRAL DOSSIN DE SAINT-GEORGES 22", "address2_fr": "1050 IXELLES", "address1_nl": "GEN DOSSIN DE SAINT-GEORGESLAAN 22", "address2_nl": "1050 ELSENE", "id": "9409", "lat": "50.810053", "lng": "4.389081", "status": "ACTIVE", "week": "13:00", "sat": ""}, {"address1_fr": "AVENUE GÉNÉRAL MÉDECIN DERACHE 2", "address2_fr": "1050 IXELLES", "address1_nl": "GENERAAL GENEESHEER DERACHELAAN 2", "address2_nl": "1050 ELSENE", "id": "89368", "lat": "50.817565", "lng": "4.385513", "status": "ACTIVE", "week": "13:00", "sat": ""}, {"address1_fr": "AVENUE GEORGES HENRI 251B", "address2_fr": "1200 WOLUWE-SAINT-LAMBERT", "address1_nl": "GEORGES HENRILAAN 251B", "address2_nl": "1200 SINT-LAMBRECHTS-WOLUWE", "id": "8428", "lat": "50.844334", "lng": "4.414845", "status": "ACTIVE", "week": "10:00", "sat": ""}, {"address1_fr": "AVENUE GEORGES HENRI 330", "address2_fr": "1200 WOLUWE-SAINT-LAMBERT", "address1_nl": "GEORGES HENRILAAN 330", "address2_nl": "1200 SINT-LAMBRECHTS-WOLUWE", "id": "41443", "lat": "50.843103", "lng": "4.409499", "status": "ACTIVE", "week": "10:00", "sat": ""}, {"address1_fr": "AVENUE GEORGES HENRI 400", "address2_fr": "1200 WOLUWE-SAINT-LAMBERT", "address1_nl": "GEORGES HENRILAAN 400", "address2_nl": "1200 SINT-LAMBRECHTS-WOLUWE", "id": "8212", "lat": "50.84223", "lng": "4.405734", "status": "ACTIVE", "week": "13:00", "sat": ""}, {"address1_fr": "AVENUE GEORGES HENRI 166", "address2_fr": "1200 WOLUWE-SAINT-LAMBERT", "address1_nl": "GEORGES HENRILAAN 166", "address2_nl": "1200 SINT-LAMBRECHTS-WOLUWE", "id": "8738", "lat": "50.844999", "lng": "4.417217", "status": "ACTIVE", "week": "13:00", "sat": ""}, {"address1_fr": "AVENUE GEORGES LEMAÎTRE 5", "address2_fr": "1348 LOUVAIN-LA-NEUVE", "address1_nl": "AVENUE GEORGES LEMAÎTRE 5", "address2_nl": "1348 LOUVAIN-LA-NEUVE", "id": "61248", "lat": "50.669691", "lng": "4.620693", "status": "ACTIVE", "week": "10:00", "sat": ""}, {"address1_fr": "AVENUE GEVAERT 145", "address2_fr": "1332 GENVAL", "address1_nl": "AVENUE GEVAERT 145", "address2_nl": "1332 GENVAL", "id": "11340", "lat": "50.723605", "lng": "4.503624", "status": "ACTIVE", "week": "10:00", "sat": ""}, {"address1_fr": "AVENUE GOUNOD 65", "address2_fr": "1070 ANDERLECHT", "address1_nl": "GOUNODLAAN 65", "address2_nl": "1070 ANDERLECHT", "id": "7701", "lat": "50.830418", "lng": "4.301088", "status": "ACTIVE", "week": "13:00", "sat": ""}, {"address1_fr": "AVENUE GRANDCHAMP 28", "address2_fr": "1150 WOLUWE-SAINT-PIERRE", "address1_nl": "GROOTVELDLAAN 28", "address2_nl": "1150 SINT-PIETERS-WOLUWE", "id": "32163", "lat": "50.834233", "lng": "4.448536", "status": "ACTIVE", "week": "10:00", "sat": ""}, {"address1_fr": "AVENUE GUILLAUME HERINCKX 119", "address2_fr": "1180 UCCLE", "address1_nl": "GUILLAUME HERINCKXLAAN 119", "address2_nl": "1180 UKKEL", "id": "7694", "lat": "50.796895", "lng": "4.32994", "status": "ACTIVE", "week": "10:00", "sat": ""}, {"address1_fr": "AVENUE GUILLAUME VAN NEROM 32", "address2_fr": "1160 AUDERGHEM", "address1_nl": "GUILLAUME VAN NEROMLAAN 32", "address2_nl": "1160 OUDERGEM", "id": "11809", "lat": "50.807194", "lng": "4.431262", "status": "ACTIVE", "week": "10:00", "sat": ""}, {"address1_fr": "AVENUE GUSTAVE LATINIS 241", "address2_fr": "1030 SCHAERBEEK", "address1_nl": "GUSTAVE LATINISLAAN 241", "address2_nl": "1030 SCHAARBEEK", "id": "8449", "lat": "50.861111", "lng": "4.392291", "status": "ACTIVE", "week": "13:00", "sat": ""}, {"address1_fr": "AVENUE HAMOIR 42", "address2_fr": "1180 UCCLE", "address1_nl": "HAMOIRLAAN 42", "address2_nl": "1180 UKKEL", "id": "15819", "lat": "50.799005", "lng": "4.364208", "status": "ACTIVE", "week": "13:00", "sat": ""}, {"address1_fr": "AVENUE HENRI CONSCIENCE 156", "address2_fr": "1140 EVERE", "address1_nl": "HENDRIK CONSCIENCELAAN 156", "address2_nl": "1140 EVERE", "id": "6406", "lat": "50.871064", "lng": "4.40029", "status": "ACTIVE", "week": "13:00", "sat": ""}, {"address1_fr": "AVENUE HENRI LEPAGE 4/jun", "address2_fr": "1300 WAVRE", "address1_nl": "AVENUE HENRI LEPAGE 4/jun", "address2_nl": "1300 WAVRE", "id": "15866", "lat": "50.719438", "lng": "4.608588", "status": "ACTIVE", "week": "13:00", "sat": ""}, {"address1_fr": "AVENUE HENRI LIEBRECHT 66", "address2_fr": "1090 JETTE", "address1_nl": "HENRI LIEBRECHTLAAN 66", "address2_nl": "1090 JETTE", "id": "97028", "lat": "50.889512", "lng": "4.318296", "status": "ACTIVE", "week": "13:00", "sat": ""}, {"address1_fr": "AVENUE HENRI PIRARD 15", "address2_fr": "1350 ORP-LE-GRAND", "address1_nl": "AVENUE HENRI PIRARD 15", "address2_nl": "1350 ORP-LE-GRAND", "id": "12730", "lat": "50.71363", "lng": "4.997405", "status": "ACTIVE", "week": "10:00", "sat": ""}, {"address1_fr": "AVENUE HERRMANN DEBROUX 1", "address2_fr": "1160 AUDERGHEM", "address1_nl": "HERRMANN DEBROUXLAAN 1", "address2_nl": "1160 OUDERGEM", "id": "6563", "lat": "50.8121", "lng": "4.428018", "status": "ACTIVE", "week": "10:00", "sat": ""}, {"address1_fr": "AVENUE HEYDENBERG 81", "address2_fr": "1200 WOLUWE-SAINT-LAMBERT", "address1_nl": "HEYDENBERGLAAN 81", "address2_nl": "1200 SINT-LAMBRECHTS-WOLUWE", "id": "8432", "lat": "50.848548", "lng": "4.416843", "status": "ACTIVE", "week": "13:00", "sat": ""}, {"address1_fr": "AVENUE HIPPOCRATE 52", "address2_fr": "1200 WOLUWE-SAINT-LAMBERT", "address1_nl": "HIPPOKRATESLAAN 52", "address2_nl": "1200 SINT-LAMBRECHTS-WOLUWE", "id": "8410", "lat": "50.852638", "lng": "4.454026", "status": "ACTIVE", "week": "13:00", "sat": ""}, {"address1_fr": "AVENUE HOUBA DE STROOPER 292", "address2_fr": "1020 LAEKEN", "address1_nl": "HOUBA-DE-STROOPERLAAN 292", "address2_nl": "1020 LAKEN", "id": "7121", "lat": "50.893513", "lng": "4.332412", "status": "ACTIVE", "week": "13:00", "sat": ""}, {"address1_fr": "AVENUE HOUBA DE STROOPER 150-152", "address2_fr": "1020 LAEKEN", "address1_nl": "HOUBA-DE-STROOPERLAAN 150-152", "address2_nl": "1020 LAKEN", "id": "16418", "lat": "50.889622", "lng": "4.336905", "status": "ACTIVE", "week": "19:00", "sat": ""}, {"address1_fr": "AVENUE HUART HAMOIR 149", "address2_fr": "1030 SCHAERBEEK", "address1_nl": "HUART HAMOIRLAAN 149", "address2_nl": "1030 SCHAARBEEK", "id": "7670", "lat": "50.87352", "lng": "4.386764", "status": "ACTIVE", "week": "10:00", "sat": ""}, {"address1_fr": "AVENUE IMPÉRATRICE CHARLOTTE 2", "address2_fr": "1020 LAEKEN", "address1_nl": "KEIZERIN CHARLOTTELAAN 2", "address2_nl": "1020 LAKEN", "id": "16414", "lat": "50.897604", "lng": "4.336055", "status": "ACTIVE", "week": "10:00", "sat": ""}, {"address1_fr": "AVENUE ISIDORE GEYSKENS 119", "address2_fr": "1160 AUDERGHEM", "address1_nl": "ISIDORE GEYSKENSLAAN 119", "address2_nl": "1160 OUDERGEM", "id": "6560", "lat": "50.819948", "lng": "4.421979", "status": "ACTIVE", "week": "13:00", "sat": ""}, {"address1_fr": "AVENUE JACOBS 1", "address2_fr": "1360 PERWEZ", "address1_nl": "AVENUE JACOBS 1", "address2_nl": "1360 PERWEZ", "id": "16332", "lat": "50.625758", "lng": "4.811736", "status": "ACTIVE", "week": "13:00", "sat": ""}, {"address1_fr": "AVENUE JEAN LENOIR 2", "address2_fr": "1348 LOUVAIN-LA-NEUVE", "address1_nl": "AVENUE JEAN LENOIR 2", "address2_nl": "1348 LOUVAIN-LA-NEUVE", "id": "8289", "lat": "50.666423", "lng": "4.626753", "status": "ACTIVE", "week": "13:00", "sat": ""}, {"address1_fr": "AVENUE JEAN VAN HORENBEECK 196", "address2_fr": "1160 AUDERGHEM", "address1_nl": "JEAN VAN HORENBEECKLAAN 196", "address2_nl": "1160 OUDERGEM", "id": "6551", "lat": "50.80551", "lng": "4.434201", "status": "ACTIVE", "week": "13:00", "sat": ""}, {"address1_fr": "AVENUE JEAN-BAPTISTE DEPAIRE 118", "address2_fr": "1020 LAEKEN", "address1_nl": "JEAN-BAPTISTE DEPAIRELAAN 118", "address2_nl": "1020 LAKEN", "id": "7123", "lat": "50.891021", "lng": "4.330989", "status": "ACTIVE", "week": "10:00", "sat": ""}, {"address1_fr": "AVENUE JEAN-FRANCOIS DEBECKER 10", "address2_fr": "1200 WOLUWE-SAINT-LAMBERT", "address1_nl": "JEAN-FRANCOIS DEBECKERLAAN 10", "address2_nl": "1200 SINT-LAMBRECHTS-WOLUWE", "id": "8236", "lat": "50.844669", "lng": "4.439938", "status": "ACTIVE", "week": "13:00", "sat": ""}, {"address1_fr": "AVENUE JEAN-FRANÇOIS LEEMANS 53", "address2_fr": "1160 AUDERGHEM", "address1_nl": "JEAN FRANÇOIS LEEMANSLAAN 53", "address2_nl": "1160 OUDERGEM", "id": "6564", "lat": "50.803281", "lng": "4.436557", "status": "ACTIVE", "week": "13:00", "sat": ""}, {"address1_fr": "AVENUE JEANNE 35", "address2_fr": "1000 BRUXELLES", "address1_nl": "JOHANNALAAN 35", "address2_nl": "1000 BRUSSEL", "id": "8497", "lat": "50.813853", "lng": "4.378123", "status": "ACTIVE", "week": "13:00", "sat": ""}, {"address1_fr": "AVENUE JEF LAMBEAUX 37", "address2_fr": "1060 SAINT-GILLES", "address1_nl": "JEF LAMBEAUXLAAN 37", "address2_nl": "1060 SINT-GILLIS", "id": "8177", "lat": "50.822918", "lng": "4.34636", "status": "ACTIVE", "week": "10:00", "sat": ""}, {"address1_fr": "AVENUE JOSEPH CHAUDRON 48", "address2_fr": "1160 AUDERGHEM", "address1_nl": "JOSEPH CHAUDRONLAAN 48", "address2_nl": "1160 OUDERGEM", "id": "6731", "lat": "50.811848", "lng": "4.432471", "status": "ACTIVE", "week": "10:00", "sat": ""}, {"address1_fr": "AVENUE JOSEPH JONGEN 44", "address2_fr": "1180 UCCLE", "address1_nl": "JOSEPH JONGENLAAN 44", "address2_nl": "1180 UKKEL", "id": "16433", "lat": "50.799393", "lng": "4.332566", "status": "ACTIVE", "week": "10:00", "sat": ""}, {"address1_fr": "AVENUE JOSSE GOFFIN 153", "address2_fr": "1082 BERCHEM-SAINTE-AGATHE", "address1_nl": "JOSSE GOFFINLAAN 153", "address2_nl": "1082 SINT-AGATHA-BERCHEM", "id": "9656", "lat": "50.866627", "lng": "4.304855", "status": "ACTIVE", "week": "13:00", "sat": ""}, {"address1_fr": "AVENUE JOSSE GOFFIN 12", "address2_fr": "1082 BERCHEM-SAINTE-AGATHE", "address1_nl": "JOSSE GOFFINLAAN 12", "address2_nl": "1082 SINT-AGATHA-BERCHEM", "id": "9655", "lat": "50.864693", "lng": "4.297916", "status": "ACTIVE", "week": "17:00", "sat": ""}, {"address1_fr": "AVENUE JULES BORDET 162", "address2_fr": "1140 EVERE", "address1_nl": "JULES BORDETLAAN 162", "address2_nl": "1140 EVERE", "id": "16918", "lat": "50.871018", "lng": "4.417925", "status": "ACTIVE", "week": "13:00", "sat": ""}, {"address1_fr": "AVENUE JULES CÉSAR 122", "address2_fr": "1150 WOLUWE-SAINT-PIERRE", "address1_nl": "JULIUS CAESARLAAN 122", "address2_nl": "1150 SINT-PIETERS-WOLUWE", "id": "22204", "lat": "50.832252", "lng": "4.414176", "status": "ACTIVE", "week": "13:00", "sat": ""}, {"address1_fr": "AVENUE JULES DU JARDIN 45", "address2_fr": "1150 WOLUWE-SAINT-PIERRE", "address1_nl": "JULES DU JARDINLAAN 45", "address2_nl": "1150 SINT-PIETERS-WOLUWE", "id": "8742", "lat": "50.830067", "lng": "4.45493", "status": "ACTIVE", "week": "13:00", "sat": ""}, {"address1_fr": "AVENUE JULES GÉNICOT 2", "address2_fr": "1160 AUDERGHEM", "address1_nl": "JULES GÉNICOTLAAN 2", "address2_nl": "1160 OUDERGEM", "id": "6561", "lat": "50.820563", "lng": "4.42804", "status": "ACTIVE", "week": "13:00", "sat": ""}, {"address1_fr": "AVENUE KAMERDELLE 64", "address2_fr": "1180 UCCLE", "address1_nl": "KAMERDELLELAAN 64", "address2_nl": "1180 UKKEL", "id": "6931", "lat": "50.800084", "lng": "4.349911", "status": "ACTIVE", "week": "10:00", "sat": ""}, {"address1_fr": "AVENUE KERSBEEK 209", "address2_fr": "1190 FOREST", "address1_nl": "KERSBEEKLAAN 209", "address2_nl": "1190 VORST", "id": "7001", "lat": "50.802728", "lng": "4.319035", "status": "ACTIVE", "week": "10:00", "sat": ""}, {"address1_fr": "AVENUE LAVOISIER 5", "address2_fr": "1300 WAVRE", "address1_nl": "AVENUE LAVOISIER 5", "address2_nl": "1300 WAVRE", "id": "38383", "lat": "50.73639", "lng": "4.596246", "status": "ACTIVE", "week": "13:00", "sat": ""}, {"address1_fr": "AVENUE LÉON FOURNET 21", "address2_fr": "1342 LIMELETTE", "address1_nl": "AVENUE LÉON FOURNET 21", "address2_nl": "1342 LIMELETTE", "id": "14503", "lat": "50.685118", "lng": "4.574451", "status": "ACTIVE", "week": "10:00", "sat": ""}, {"address1_fr": "AVENUE LEONARD MOMMAERTS 2", "address2_fr": "1140 EVERE", "address1_nl": "LEONARD MOMMAERTSLAAN 2", "address2_nl": "1140 EVERE", "id": "6407", "lat": "50.85678", "lng": "4.412826", "status": "ACTIVE", "week": "13:00", "sat": ""}, {"address1_fr": "AVENUE LÉOPOLD WIENER 26-24", "address2_fr": "1170 WATERMAEL-BOITSFORT", "address1_nl": "LÉOPOLD WIENERLAAN 26-24", "address2_nl": "1170 WATERMAAL-BOSVOORDE", "id": "6585", "lat": "50.807785", "lng": "4.407338", "status": "ACTIVE", "week": "13:00", "sat": ""}, {"address1_fr": "AVENUE LOUIS BERTRAND 2", "address2_fr": "1030 SCHAERBEEK", "address1_nl": "LOUIS BERTRANDLAAN 2", "address2_nl": "1030 SCHAARBEEK", "id": "7690", "lat": "50.864429", "lng": "4.373664", "status": "ACTIVE", "week": "13:00", "sat": ""}, {"address1_fr": "AVENUE LOUIS BERTRAND 128", "address2_fr": "1030 SCHAERBEEK", "address1_nl": "LOUIS BERTRANDLAAN 128", "address2_nl": "1030 SCHAARBEEK", "id": "8450", "lat": "50.865065", "lng": "4.381925", "status": "ACTIVE", "week": "10:00", "sat": ""}, {"address1_fr": "AVENUE LOUIS DEHOUX 25", "address2_fr": "1160 AUDERGHEM", "address1_nl": "LOUIS DEHOUXLAAN 25", "address2_nl": "1160 OUDERGEM", "id": "6556", "lat": "50.814412", "lng": "4.419264", "status": "ACTIVE", "week": "10:00", "sat": ""}, {"address1_fr": "AVENUE LOUIS GRIBAUMONT 3", "address2_fr": "1150 WOLUWE-SAINT-PIERRE", "address1_nl": "LOUIS GRIBAUMONTLAAN 3", "address2_nl": "1150 SINT-PIETERS-WOLUWE", "id": "8243", "lat": "50.836733", "lng": "4.415541", "status": "ACTIVE", "week": "13:00", "sat": ""}, {"address1_fr": "AVENUE LOUIS GRIBAUMONT 162", "address2_fr": "1200 WOLUWE-SAINT-LAMBERT", "address1_nl": "LOUIS GRIBAUMONTLAAN 162", "address2_nl": "1200 SINT-LAMBRECHTS-WOLUWE", "id": "8213", "lat": "50.842271", "lng": "4.418123", "status": "ACTIVE", "week": "13:00", "sat": ""}, {"address1_fr": "AVENUE LOUIS LEPOUTRE 4", "address2_fr": "1050 IXELLES", "address1_nl": "LOUIS LEPOUTRELAAN 4", "address2_nl": "1050 ELSENE", "id": "9745", "lat": "50.819855", "lng": "4.359469", "status": "ACTIVE", "week": "13:00", "sat": ""}, {"address1_fr": "AVENUE LOUISE 326", "address2_fr": "1000 BRUXELLES", "address1_nl": "LOUIZALAAN 326", "address2_nl": "1000 BRUSSEL", "id": "9865", "lat": "50.823318", "lng": "4.368384", "status": "ACTIVE", "week": "13:00", "sat": ""}, {"address1_fr": "AVENUE LOUISE 145", "address2_fr": "1000 BRUXELLES", "address1_nl": "LOUIZALAAN 145", "address2_nl": "1000 BRUSSEL", "id": "16362", "lat": "50.828736", "lng": "4.361588", "status": "ACTIVE", "week": "13:00", "sat": ""}, {"address1_fr": "AVENUE LOUISE 440", "address2_fr": "1000 BRUXELLES", "address1_nl": "LOUIZALAAN 440", "address2_nl": "1000 BRUSSEL", "id": "15967", "lat": "50.81847", "lng": "4.3714376", "status": "ACTIVE", "week": "10:00", "sat": ""}, {"address1_fr": "AVENUE LOUISE 535", "address2_fr": "1000 BRUXELLES", "address1_nl": "LOUIZALAAN 535", "address2_nl": "1000 BRUSSEL", "id": "9422", "lat": "50.814704", "lng": "4.371733", "status": "ACTIVE", "week": "10:00", "sat": ""}, {"address1_fr": "AVENUE LOUISE 532", "address2_fr": "1000 BRUXELLES", "address1_nl": "LOUIZALAAN 532", "address2_nl": "1000 BRUSSEL", "id": "9423", "lat": "50.81508805", "lng": "4.372919178", "status": "ACTIVE", "week": "10:00", "sat": ""}, {"address1_fr": "AVENUE LOUISE 379", "address2_fr": "1000 BRUXELLES", "address1_nl": "LOUIZALAAN 379", "address2_nl": "1000 BRUSSEL", "id": "25783", "lat": "50.820636", "lng": "4.370008", "status": "ACTIVE", "week": "13:00", "sat": ""}, {"address1_fr": "AVENUE LOUISE 379", "address2_fr": "1000 BRUXELLES", "address1_nl": "LOUIZALAAN 379", "address2_nl": "1000 BRUSSEL", "id": "9421", "lat": "50.820557", "lng": "4.370067", "status": "ACTIVE", "week": "13:00", "sat": ""}, {"address1_fr": "AVENUE MARCEL DEVIENNE 4", "address2_fr": "1200 WOLUWE-SAINT-LAMBERT", "address1_nl": "MARCEL DEVIENNELAAN 4", "address2_nl": "1200 SINT-LAMBRECHTS-WOLUWE", "id": "10823", "lat": "50.844549", "lng": "4.448701", "status": "ACTIVE", "week": "10:00", "sat": ""}, {"address1_fr": "AVENUE MARCEL THIRY 9", "address2_fr": "1200 WOLUWE-SAINT-LAMBERT", "address1_nl": "MARCEL THIRYLAAN 9", "address2_nl": "1200 SINT-LAMBRECHTS-WOLUWE", "id": "8411", "lat": "50.854828", "lng": "4.439939", "status": "ACTIVE", "week": "10:00", "sat": ""}, {"address1_fr": "AVENUE MARIE-JOSÉ 1", "address2_fr": "1200 WOLUWE-SAINT-LAMBERT", "address1_nl": "MARIE-JOSÉLAAN 1", "address2_nl": "1200 SINT-LAMBRECHTS-WOLUWE", "id": "8740", "lat": "50.846079", "lng": "4.414424", "status": "ACTIVE", "week": "10:00", "sat": ""}, {"address1_fr": "AVENUE MARIE-JOSÉ 98", "address2_fr": "1200 WOLUWE-SAINT-LAMBERT", "address1_nl": "MARIE-JOSÉLAAN 98", "address2_nl": "1200 SINT-LAMBRECHTS-WOLUWE", "id": "11319", "lat": "50.84491", "lng": "4.409456", "status": "ACTIVE", "week": "10:00", "sat": ""}, {"address1_fr": "AVENUE MARIUS RENARD 45", "address2_fr": "1070 ANDERLECHT", "address1_nl": "MARIUS RENARDLAAN 45", "address2_nl": "1070 ANDERLECHT", "id": "7723", "lat": "50.82592", "lng": "4.285586", "status": "ACTIVE", "week": "13:00", "sat": ""}, {"address1_fr": "AVENUE MARIUS RENARD 23", "address2_fr": "1070 ANDERLECHT", "address1_nl": "MARIUS RENARDLAAN 23", "address2_nl": "1070 ANDERLECHT", "id": "16891", "lat": "50.827327", "lng": "4.288725", "status": "ACTIVE", "week": "13:00", "sat": ""}, {"address1_fr": "AVENUE MARNIX 30", "address2_fr": "1000 BRUXELLES", "address1_nl": "MARNIXLAAN 30", "address2_nl": "1000 BRUSSEL", "id": "8498", "lat": "50.840501", "lng": "4.365912", "status": "ACTIVE", "week": "13:00", "sat": ""}, {"address1_fr": "AVENUE MILCAMPS 109", "address2_fr": "1030 SCHAERBEEK", "address1_nl": "MILCAMPSLAAN 109", "address2_nl": "1030 SCHAARBEEK", "id": "7672", "lat": "50.850209", "lng": "4.39427", "status": "ACTIVE", "week": "13:00", "sat": ""}, {"address1_fr": "AVENUE MOLIÈRE 327", "address2_fr": "1180 UCCLE", "address1_nl": "MOLIERELAAN 327", "address2_nl": "1180 UKKEL", "id": "6932", "lat": "50.815417", "lng": "4.358966", "status": "ACTIVE", "week": "13:00", "sat": ""}, {"address1_fr": "AVENUE MOLIÈRE 15", "address2_fr": "1300 WAVRE", "address1_nl": "AVENUE MOLIÈRE 15", "address2_nl": "1300 WAVRE", "id": "18868", "lat": "50.707088", "lng": "4.631247", "status": "ACTIVE", "week": "10:00", "sat": ""}, {"address1_fr": "AVENUE MOLIÈRE 15", "address2_fr": "1300 WAVRE", "address1_nl": "AVENUE MOLIÈRE 15", "address2_nl": "1300 WAVRE", "id": "8265", "lat": "50.707067", "lng": "4.63125", "status": "ACTIVE", "week": "10:00", "sat": ""}, {"address1_fr": "AVENUE MONTJOIE 95-97", "address2_fr": "1180 UCCLE", "address1_nl": "MONTJOIELAAN 95-97", "address2_nl": "1180 UKKEL", "id": "6934", "lat": "50.810041", "lng": "4.364585", "status": "ACTIVE", "week": "13:00", "sat": ""}, {"address1_fr": "AVENUE MOSTINCK 92", "address2_fr": "1150 WOLUWE-SAINT-PIERRE", "address1_nl": "MOSTINCKLAAN 92", "address2_nl": "1150 SINT-PIETERS-WOLUWE", "id": "15946", "lat": "50.827981", "lng": "4.423132", "status": "ACTIVE", "week": "13:00", "sat": ""}, {"address1_fr": "AVENUE NEPTUNE 53", "address2_fr": "1190 FOREST", "address1_nl": "NEPTUNUSLAAN 53", "address2_nl": "1190 VORST", "id": "15950", "lat": "50.81333", "lng": "4.334942", "status": "ACTIVE", "week": "13:00", "sat": ""}, {"address1_fr": "AVENUE NOTRE-DAME 16", "address2_fr": "1300 LIMAL", "address1_nl": "AVENUE NOTRE-DAME 16", "address2_nl": "1300 LIMAL", "id": "13785", "lat": "50.69216", "lng": "4.569232", "status": "ACTIVE", "week": "10:00", "sat": ""}, {"address1_fr": "AVENUE NOTRE-DAME DE LOURDES 35", "address2_fr": "1090 JETTE", "address1_nl": "ONZE-LIEVE-VROUW VAN LOURDESLAAN 35", "address2_nl": "1090 JETTE", "id": "10049", "lat": "50.873288", "lng": "4.336298", "status": "ACTIVE", "week": "10:00", "sat": ""}, {"address1_fr": "AVENUE ORBAN 4", "address2_fr": "1150 WOLUWE-SAINT-PIERRE", "address1_nl": "ORBANLAAN 4", "address2_nl": "1150 SINT-PIETERS-WOLUWE", "id": "14062", "lat": "50.831563", "lng": "4.452065", "status": "ACTIVE", "week": "13:00", "sat": ""}, {"address1_fr": "AVENUE OSCAR JESPERS 13", "address2_fr": "1200 WOLUWE-SAINT-LAMBERT", "address1_nl": "OSCAR JESPERSLAAN 13", "address2_nl": "1200 SINT-LAMBRECHTS-WOLUWE", "id": "16470", "lat": "50.858895", "lng": "4.43888", "status": "ACTIVE", "week": "10:00", "sat": ""}, {"address1_fr": "AVENUE PASTEUR 23", "address2_fr": "1300 WAVRE", "address1_nl": "AVENUE PASTEUR 23", "address2_nl": "1300 WAVRE", "id": "120699", "lat": "50.7307663", "lng": "4.588959217", "status": "ACTIVE", "week": "17:00", "sat": ""}, {"address1_fr": "AVENUE PAUL DESCHANEL 2", "address2_fr": "1030 SCHAERBEEK", "address1_nl": "PAUL DESCHANELLAAN 2", "address2_nl": "1030 SCHAARBEEK", "id": "46603", "lat": "50.862702", "lng": "4.380944", "status": "ACTIVE", "week": "13:00", "sat": ""}, {"address1_fr": "AVENUE PAUL HYMANS 127", "address2_fr": "1200 WOLUWE-SAINT-LAMBERT", "address1_nl": "PAUL HYMANSLAAN 127", "address2_nl": "1200 SINT-LAMBRECHTS-WOLUWE", "id": "16327", "lat": "50.847339", "lng": "4.434108", "status": "ACTIVE", "week": "10:00", "sat": ""}, {"address1_fr": "AVENUE PLATON 1", "address2_fr": "1140 EVERE", "address1_nl": "PLATOLAAN 1", "address2_nl": "1140 EVERE", "id": "6408", "lat": "50.86152", "lng": "4.421099", "status": "ACTIVE", "week": "13:00", "sat": ""}, {"address1_fr": "AVENUE PROVINCIALE 127", "address2_fr": "1341 CÉROUX-MOUSTY", "address1_nl": "AVENUE PROVINCIALE 127", "address2_nl": "1341 CÉROUX-MOUSTY", "id": "15592", "lat": "50.65493", "lng": "4.564712", "status": "ACTIVE", "week": "10:00", "sat": ""}, {"address1_fr": "AVENUE RENÉ STEVENS 7", "address2_fr": "1160 AUDERGHEM", "address1_nl": "RENÉ STEVENSLAAN 7", "address2_nl": "1160 OUDERGEM", "id": "11308", "lat": "50.806447", "lng": "4.429698", "status": "ACTIVE", "week": "10:00", "sat": ""}, {"address1_fr": "AVENUE RICHARD NEYBERGH 155", "address2_fr": "1020 LAEKEN", "address1_nl": "RICHARD NEYBERGHLAAN 155", "address2_nl": "1020 LAKEN", "id": "7124", "lat": "50.87428", "lng": "4.342546", "status": "ACTIVE", "week": "10:00", "sat": ""}, {"address1_fr": "AVENUE RICHARD NEYBERGH 4", "address2_fr": "1020 LAEKEN", "address1_nl": "RICHARD NEYBERGHLAAN 4", "address2_nl": "1020 LAKEN", "id": "8526", "lat": "50.877238", "lng": "4.345842", "status": "ACTIVE", "week": "13:00", "sat": ""}, {"address1_fr": "AVENUE ROGIER 118", "address2_fr": "1030 SCHAERBEEK", "address1_nl": "ROGIERLAAN 118", "address2_nl": "1030 SCHAARBEEK", "id": "7674", "lat": "50.85939", "lng": "4.377888", "status": "ACTIVE", "week": "10:00", "sat": ""}, {"address1_fr": "AVENUE ROGIER 162", "address2_fr": "1030 SCHAERBEEK", "address1_nl": "ROGIERLAAN 162", "address2_nl": "1030 SCHAARBEEK", "id": "7830", "lat": "50.858438", "lng": "4.382625", "status": "ACTIVE", "week": "17:00", "sat": ""}, {"address1_fr": "AVENUE ROGIER 1", "address2_fr": "1030 SCHAERBEEK", "address1_nl": "ROGIERLAAN 1", "address2_nl": "1030 SCHAARBEEK", "id": "7673", "lat": "50.860741", "lng": "4.371601", "status": "ACTIVE", "week": "13:00", "sat": ""}, {"address1_fr": "AVENUE SAINT-AUGUSTIN 61", "address2_fr": "1190 FOREST", "address1_nl": "SINT-AUGUSTINUSLAAN 61", "address2_nl": "1190 VORST", "id": "7002", "lat": "50.816656", "lng": "4.339906", "status": "ACTIVE", "week": "13:00", "sat": ""}, {"address1_fr": "AVENUE SEGHERS 19", "address2_fr": "1081 KOEKELBERG", "address1_nl": "SEGHERSLAAN 19", "address2_nl": "1081 KOEKELBERG", "id": "9650", "lat": "50.862645", "lng": "4.322269", "status": "ACTIVE", "week": "13:00", "sat": ""}, {"address1_fr": "AVENUE SLEECKX 112", "address2_fr": "1030 SCHAERBEEK", "address1_nl": "SLEECKXLAAN 112", "address2_nl": "1030 SCHAARBEEK", "id": "13455", "lat": "50.875306", "lng": "4.382981", "status": "ACTIVE", "week": "10:00", "sat": ""}, {"address1_fr": "AVENUE VALDUCHESSE 3", "address2_fr": "1160 AUDERGHEM", "address1_nl": "HERTOGINNEDAL 3", "address2_nl": "1160 OUDERGEM", "id": "6756", "lat": "50.81961", "lng": "4.43118", "status": "ACTIVE", "week": "10:00", "sat": ""}, {"address1_fr": "AVENUE VAN DE WALLE 33", "address2_fr": "1340 OTTIGNIES", "address1_nl": "AVENUE VAN DE WALLE 33", "address2_nl": "1340 OTTIGNIES", "id": "11343", "lat": "50.673344", "lng": "4.554296", "status": "ACTIVE", "week": "10:00", "sat": ""}, {"address1_fr": "AVENUE VAN OVERBEKE 243", "address2_fr": "1083 GANSHOREN", "address1_nl": "VAN OVERBEKELAAN 243", "address2_nl": "1083 GANSHOREN", "id": "10057", "lat": "50.876412", "lng": "4.306612", "status": "ACTIVE", "week": "13:00", "sat": ""}, {"address1_fr": "AVENUE VAN OVERBEKE 6", "address2_fr": "1083 GANSHOREN", "address1_nl": "VAN OVERBEKELAAN 6", "address2_nl": "1083 GANSHOREN", "id": "9666", "lat": "50.868614", "lng": "4.316348", "status": "ACTIVE", "week": "10:00", "sat": ""}, {"address1_fr": "AVENUE VAN VOLXEM 166", "address2_fr": "1190 FOREST", "address1_nl": "VAN VOLXEMLAAN 166", "address2_nl": "1190 VORST", "id": "7004", "lat": "50.818371", "lng": "4.325302", "status": "ACTIVE", "week": "13:00", "sat": ""}, {"address1_fr": "AVENUE VAN VOLXEM 332", "address2_fr": "1190 FOREST", "address1_nl": "VAN VOLXEMLAAN 332", "address2_nl": "1190 VORST", "id": "8402", "lat": "50.823754", "lng": "4.325943", "status": "ACTIVE", "week": "13:00", "sat": ""}, {"address1_fr": "AVENUE VÉSALE 4", "address2_fr": "1300 WAVRE", "address1_nl": "AVENUE VÉSALE 4", "address2_nl": "1300 WAVRE", "id": "8550", "lat": "50.731624", "lng": "4.586032", "status": "ACTIVE", "week": "17:00", "sat": ""}, {"address1_fr": "AVENUE VITAL RIETHUISEN 83", "address2_fr": "1083 GANSHOREN", "address1_nl": "VITAL RIETHUISENLAAN 83", "address2_nl": "1083 GANSHOREN", "id": "10056", "lat": "50.869816", "lng": "4.321188", "status": "ACTIVE", "week": "13:00", "sat": ""}, {"address1_fr": "AVENUE VOLTAIRE 2", "address2_fr": "1030 SCHAERBEEK", "address1_nl": "VOLTAIRELAAN 2", "address2_nl": "1030 SCHAARBEEK", "id": "7675", "lat": "50.869916", "lng": "4.375204", "status": "ACTIVE", "week": "10:00", "sat": ""}, {"address1_fr": "AVENUE WANNECOUTER 115", "address2_fr": "1020 LAEKEN", "address1_nl": "WANNEKOUTERLAAN 115", "address2_nl": "1020 LAKEN", "id": "7125", "lat": "50.898793", "lng": "4.362013", "status": "ACTIVE", "week": "13:00", "sat": ""}, {"address1_fr": "AVENUE WILMART 90", "address2_fr": "1360 PERWEZ", "address1_nl": "AVENUE WILMART 90", "address2_nl": "1360 PERWEZ", "id": "11353", "lat": "50.625765", "lng": "4.823893", "status": "ACTIVE", "week": "10:00", "sat": ""}, {"address1_fr": "AVENUE WILMART 26", "address2_fr": "1360 PERWEZ", "address1_nl": "AVENUE WILMART 26", "address2_nl": "1360 PERWEZ", "id": "8570", "lat": "50.624795", "lng": "4.816586", "status": "ACTIVE", "week": "17:00", "sat": ""}, {"address1_fr": "AVENUE WINSTON CHURCHILL 4", "address2_fr": "1180 UCCLE", "address1_nl": "WINSTON CHURCHILLAAN 4", "address2_nl": "1180 UKKEL", "id": "24523", "lat": "50.813474", "lng": "4.348326", "status": "ACTIVE", "week": "13:00", "sat": ""}, {"address1_fr": "AVENUE WINSTON CHURCHILL 2", "address2_fr": "1340 OTTIGNIES", "address1_nl": "AVENUE WINSTON CHURCHILL 2", "address2_nl": "1340 OTTIGNIES", "id": "14504", "lat": "50.671019", "lng": "4.550438", "status": "ACTIVE", "week": "10:00", "sat": ""}, {"address1_fr": "AVENUE WOLVENDAEL 101", "address2_fr": "1180 UCCLE", "address1_nl": "WOLVENDAELLAAN 101", "address2_nl": "1180 UKKEL", "id": "6887", "lat": "50.797859", "lng": "4.343487", "status": "ACTIVE", "week": "10:00", "sat": ""}, {"address1_fr": "BAS BONLEZ 45", "address2_fr": "1325 BONLEZ", "address1_nl": "BAS BONLEZ 45", "address2_nl": "1325 BONLEZ", "id": "14356", "lat": "50.709358", "lng": "4.69209", "status": "ACTIVE", "week": "10:00", "sat": ""}, {"address1_fr": "BOULEVARD ADOLPHE MAX 109", "address2_fr": "1000 BRUXELLES", "address1_nl": "ADOLPHE MAXLAAN 109", "address2_nl": "1000 BRUSSEL", "id": "7043", "lat": "50.854325", "lng": "4.356701", "status": "ACTIVE", "week": "13:00", "sat": ""}, {"address1_fr": "BOULEVARD ANSPACH 1", "address2_fr": "1000 BRUXELLES", "address1_nl": "ANSPACHLAAN 1", "address2_nl": "1000 BRUSSEL", "id": "15387", "lat": "50.85090139", "lng": "4.352064564", "status": "ACTIVE", "week": "17:00", "sat": ""}, {"address1_fr": "BOULEVARD ANSPACH 1", "address2_fr": "1000 BRUXELLES", "address1_nl": "ANSPACHLAAN 1", "address2_nl": "1000 BRUSSEL", "id": "15435", "lat": "50.85091", "lng": "4.35204", "status": "ACTIVE", "week": "17:00", "sat": ""}, {"address1_fr": "BOULEVARD BISCHOFFSHEIM 38", "address2_fr": "1000 BRUXELLES", "address1_nl": "BISCHOFFSHEIMLAAN 38", "address2_nl": "1000 BRUSSEL", "id": "16794", "lat": "50.852527", "lng": "4.366945", "status": "ACTIVE", "week": "13:00", "sat": ""}, {"address1_fr": "BOULEVARD BISCHOFFSHEIM 11", "address2_fr": "1000 BRUXELLES", "address1_nl": "BISCHOFFSHEIMLAAN 11", "address2_nl": "1000 BRUSSEL", "id": "8421", "lat": "50.84977", "lng": "4.368565", "status": "ACTIVE", "week": "17:00", "sat": ""}, {"address1_fr": "BOULEVARD BRAND WHITLOCK 144", "address2_fr": "1200 WOLUWE-SAINT-LAMBERT", "address1_nl": "BRAND WHITLOCKLAAN 144", "address2_nl": "1200 SINT-LAMBRECHTS-WOLUWE", "id": "8214", "lat": "50.844245", "lng": "4.405469", "status": "ACTIVE", "week": "10:00", "sat": ""}, {"address1_fr": "BOULEVARD BRAND WHITLOCK 16", "address2_fr": "1200 WOLUWE-SAINT-LAMBERT", "address1_nl": "BRAND WHITLOCKLAAN 16", "address2_nl": "1200 SINT-LAMBRECHTS-WOLUWE", "id": "8215", "lat": "50.838993", "lng": "4.408252", "status": "ACTIVE", "week": "13:00", "sat": ""}, {"address1_fr": "BOULEVARD D&#39;YPRES 68", "address2_fr": "1000 BRUXELLES", "address1_nl": "IEPERLAAN 68", "address2_nl": "1000 BRUSSEL", "id": "8501", "lat": "50.857262", "lng": "4.346515", "status": "ACTIVE", "week": "13:00", "sat": ""}, {"address1_fr": "BOULEVARD DE BERLAIMONT 8", "address2_fr": "1000 BRUXELLES", "address1_nl": "DE BERLAIMONTLAAN 8", "address2_nl": "1000 BRUSSEL", "id": "8500", "lat": "50.848871", "lng": "4.358638", "status": "ACTIVE", "week": "13:00", "sat": ""}, {"address1_fr": "BOULEVARD DE L&#39;EUROPE 3", "address2_fr": "1300 WAVRE", "address1_nl": "BOULEVARD DE L&#39;EUROPE 3", "address2_nl": "1300 WAVRE", "id": "8551", "lat": "50.71203", "lng": "4.604072", "status": "ACTIVE", "week": "13:00", "sat": ""}, {"address1_fr": "BOULEVARD DE LA RÉVISION 24", "address2_fr": "1070 ANDERLECHT", "address1_nl": "HERZIENINGSLAAN 24", "address2_nl": "1070 ANDERLECHT", "id": "9186", "lat": "50.836296", "lng": "4.329452", "status": "ACTIVE", "week": "10:00", "sat": ""}, {"address1_fr": "BOULEVARD DE LA WOLUWE 70", "address2_fr": "1200 WOLUWE-SAINT-LAMBERT", "address1_nl": "WOLUWEDAL 70", "address2_nl": "1200 SINT-LAMBRECHTS-WOLUWE", "id": "60228", "lat": "50.844657", "lng": "4.439928", "status": "ACTIVE", "week": "13:00", "sat": ""}, {"address1_fr": "BOULEVARD DE SMET DE NAEYER 406", "address2_fr": "1090 JETTE", "address1_nl": "DE SMET DE NAEYERLAAN 406", "address2_nl": "1090 JETTE", "id": "9670", "lat": "50.882072", "lng": "4.335658", "status": "ACTIVE", "week": "10:00", "sat": ""}, {"address1_fr": "BOULEVARD DE SMET DE NAEYER 512", "address2_fr": "1020 LAEKEN", "address1_nl": "DE SMET DE NAEYERLAAN 512", "address2_nl": "1020 LAKEN", "id": "8527", "lat": "50.884431", "lng": "4.338613", "status": "ACTIVE", "week": "10:00", "sat": ""}, {"address1_fr": "BOULEVARD DE WATERLOO 90", "address2_fr": "1000 BRUXELLES", "address1_nl": "WATERLOOLAAN 90", "address2_nl": "1000 BRUSSEL", "id": "8499", "lat": "50.834365", "lng": "4.350968", "status": "ACTIVE", "week": "13:00", "sat": ""}, {"address1_fr": "BOULEVARD DE WATERLOO 1", "address2_fr": "1000 BRUXELLES", "address1_nl": "WATERLOOLAAN 1", "address2_nl": "1000 BRUSSEL", "id": "7042", "lat": "50.838811", "lng": "4.361579", "status": "ACTIVE", "week": "13:00", "sat": ""}, {"address1_fr": "BOULEVARD DES INVALIDES 269", "address2_fr": "1160 AUDERGHEM", "address1_nl": "INVALIDENLAAN 269", "address2_nl": "1160 OUDERGEM", "id": "51103", "lat": "50.8183", "lng": "4.404607", "status": "ACTIVE", "week": "13:00", "sat": ""}, {"address1_fr": "BOULEVARD DES INVALIDES 144", "address2_fr": "1160 AUDERGHEM", "address1_nl": "INVALIDENLAAN 144", "address2_nl": "1160 OUDERGEM", "id": "6569", "lat": "50.817863", "lng": "4.41146", "status": "ACTIVE", "week": "10:00", "sat": ""}, {"address1_fr": "BOULEVARD DU CENTENAIRE 1", "address2_fr": "1020 LAEKEN", "address1_nl": "EEUWFEESTLAAN 1", "address2_nl": "1020 LAKEN", "id": "16500", "lat": "50.895103", "lng": "4.341296", "status": "ACTIVE", "week": "13:00", "sat": ""}, {"address1_fr": "BOULEVARD DU CENTENAIRE 1", "address2_fr": "1325 DION-VALMONT", "address1_nl": "BOULEVARD DU CENTENAIRE 1", "address2_nl": "1325 DION-VALMONT", "id": "8272", "lat": "50.704836", "lng": "4.651475", "status": "ACTIVE", "week": "10:00", "sat": ""}, {"address1_fr": "BOULEVARD DU MIDI 142", "address2_fr": "1000 BRUXELLES", "address1_nl": "ZUIDLAAN 142", "address2_nl": "1000 BRUSSEL", "id": "7044", "lat": "50.833748", "lng": "4.343778", "status": "ACTIVE", "week": "13:00", "sat": ""}, {"address1_fr": "BOULEVARD DU ROI ALBERT II 44-46", "address2_fr": "1000 BRUXELLES", "address1_nl": "KONING ALBERT II LAAN 44-46", "address2_nl": "1000 BRUSSEL", "id": "8502", "lat": "50.865073", "lng": "4.3592", "status": "ACTIVE", "week": "13:00", "sat": ""}, {"address1_fr": "BOULEVARD DU ROI ALBERT II 28-30", "address2_fr": "1000 BRUXELLES", "address1_nl": "KONING ALBERT II LAAN 28-30", "address2_nl": "1000 BRUSSEL", "id": "11940", "lat": "50.862006", "lng": "4.357941", "status": "ACTIVE", "week": "13:00", "sat": ""}, {"address1_fr": "BOULEVARD DU SOUVERAIN 240", "address2_fr": "1160 AUDERGHEM", "address1_nl": "VORSTLAAN 240", "address2_nl": "1160 OUDERGEM", "id": "10878", "lat": "50.813947", "lng": "4.42414", "status": "ACTIVE", "week": "17:00", "sat": ""}, {"address1_fr": "BOULEVARD DU TRIOMPHE 151", "address2_fr": "1050 IXELLES", "address1_nl": "TRIOMFLAAN 151", "address2_nl": "1050 ELSENE", "id": "89340", "lat": "50.817978", "lng": "4.395884", "status": "ACTIVE", "week": "13:00", "sat": ""}, {"address1_fr": "BOULEVARD EDMOND MACHTENS 2", "address2_fr": "1080 MOLENBEEK-SAINT-JEAN", "address1_nl": "EDMOND MACHTENSLAAN 2", "address2_nl": "1080 SINT-JANS-MOLENBEEK", "id": "10087", "lat": "50.85387", "lng": "4.32291", "status": "ACTIVE", "week": "13:00", "sat": ""}, {"address1_fr": "BOULEVARD EMILE BOCKSTAEL 132", "address2_fr": "1020 LAEKEN", "address1_nl": "EMILE BOCKSTAELLAAN 132", "address2_nl": "1020 LAKEN", "id": "8528", "lat": "50.873245", "lng": "4.345719", "status": "ACTIVE", "week": "10:00", "sat": ""}, {"address1_fr": "BOULEVARD EMILE BOCKSTAEL 25-27", "address2_fr": "1020 LAEKEN", "address1_nl": "EMILE BOCKSTAELLAAN 25-27", "address2_nl": "1020 LAKEN", "id": "16405", "lat": "50.870694", "lng": "4.343737", "status": "ACTIVE", "week": "13:00", "sat": ""}, {"address1_fr": "BOULEVARD EMILE JACQMAIN 60", "address2_fr": "1000 BRUXELLES", "address1_nl": "EMILE JACQMAINLAAN 60", "address2_nl": "1000 BRUSSEL", "id": "7045", "lat": "50.853446", "lng": "4.353665", "status": "ACTIVE", "week": "10:00", "sat": ""}, {"address1_fr": "BOULEVARD G. VAN HAELEN 233", "address2_fr": "1190 FOREST", "address1_nl": "G. VAN HAELENLAAN 233", "address2_nl": "1190 VORST", "id": "8403", "lat": "50.823561", "lng": "4.333938", "status": "ACTIVE", "week": "13:00", "sat": ""}, {"address1_fr": "BOULEVARD G. VAN HAELEN 28", "address2_fr": "1190 FOREST", "address1_nl": "G. VAN HAELENLAAN 28", "address2_nl": "1190 VORST", "id": "7006", "lat": "50.821017", "lng": "4.327602", "status": "ACTIVE", "week": "10:00", "sat": ""}, {"address1_fr": "BOULEVARD GÉNÉRAL WAHIS 16A", "address2_fr": "1030 SCHAERBEEK", "address1_nl": "GENERAAL WAHISLAAN 16A", "address2_nl": "1030 SCHAARBEEK", "id": "16559", "lat": "50.862308", "lng": "4.399248", "status": "ACTIVE", "week": "19:00", "sat": ""}, {"address1_fr": "BOULEVARD INDUSTRIEL 22", "address2_fr": "1070 ANDERLECHT", "address1_nl": "INDUSTRIELAAN 22", "address2_nl": "1070 ANDERLECHT", "id": "7702", "lat": "50.826581", "lng": "4.313369", "status": "ACTIVE", "week": "13:00", "sat": ""}, {"address1_fr": "BOULEVARD INDUSTRIEL 103", "address2_fr": "1070 ANDERLECHT", "address1_nl": "INDUSTRIELAAN 103", "address2_nl": "1070 ANDERLECHT", "id": "7703", "lat": "50.819805", "lng": "4.308306", "status": "ACTIVE", "week": "13:00", "sat": ""}, {"address1_fr": "BOULEVARD JULES GRAINDOR 66", "address2_fr": "1070 ANDERLECHT", "address1_nl": "JULES GRAINDORLAAN 66", "address2_nl": "1070 ANDERLECHT", "id": "16698", "lat": "50.844886", "lng": "4.317807", "status": "ACTIVE", "week": "13:00", "sat": ""}, {"address1_fr": "BOULEVARD LAMBERMONT 114", "address2_fr": "1030 SCHAERBEEK", "address1_nl": "LAMBERMONTLAAN 114", "address2_nl": "1030 SCHAARBEEK", "id": "25107", "lat": "50.872738", "lng": "4.379657", "status": "ACTIVE", "week": "13:00", "sat": ""}, {"address1_fr": "BOULEVARD LEOPOLD II 237", "address2_fr": "1081 KOEKELBERG", "address1_nl": "LEOPOLD II-LAAN 237", "address2_nl": "1081 KOEKELBERG", "id": "9995", "lat": "50.862485", "lng": "4.333649", "status": "ACTIVE", "week": "10:00", "sat": ""}, {"address1_fr": "BOULEVARD LEOPOLD II 44", "address2_fr": "1080 MOLENBEEK-SAINT-JEAN", "address1_nl": "LEOPOLD II LAAN 44", "address2_nl": "1080 SINT-JANS-MOLENBEEK", "id": "10388", "lat": "50.859411", "lng": "4.343194", "status": "ACTIVE", "week": "13:00", "sat": ""}, {"address1_fr": "BOULEVARD LÉOPOLD III 17", "address2_fr": "1030 SCHAERBEEK", "address1_nl": "LEOPOLD III-LAAN 17", "address2_nl": "1030 SCHAARBEEK", "id": "7676", "lat": "50.858302", "lng": "4.399636", "status": "ACTIVE", "week": "13:00", "sat": ""}, {"address1_fr": "BOULEVARD LOUIS METTEWIE 65", "address2_fr": "1080 MOLENBEEK-SAINT-JEAN", "address1_nl": "LOUIS METTEWIELAAN 65", "address2_nl": "1080 SINT-JANS-MOLENBEEK", "id": "9628", "lat": "50.855505", "lng": "4.306799", "status": "ACTIVE", "week": "13:00", "sat": ""}, {"address1_fr": "BOULEVARD LOUIS METTEWIE 487", "address2_fr": "1080 MOLENBEEK-SAINT-JEAN", "address1_nl": "LOUIS METTEWIELAAN 487", "address2_nl": "1080 SINT-JANS-MOLENBEEK", "id": "9627", "lat": "50.847929", "lng": "4.298561", "status": "ACTIVE", "week": "10:00", "sat": ""}, {"address1_fr": "BOULEVARD LOUIS METTEWIE 423", "address2_fr": "1080 MOLENBEEK-SAINT-JEAN", "address1_nl": "LOUIS METTEWIELAAN 423", "address2_nl": "1080 SINT-JANS-MOLENBEEK", "id": "10088", "lat": "50.851611", "lng": "4.300287", "status": "ACTIVE", "week": "13:00", "sat": ""}, {"address1_fr": "BOULEVARD LOUIS SCHMIDT 87", "address2_fr": "1040 ETTERBEEK", "address1_nl": "LOUIS SCHMIDTLAAN 87", "address2_nl": "1040 ETTERBEEK", "id": "2646", "lat": "50.829488", "lng": "4.403193", "status": "ACTIVE", "week": "13:00", "sat": ""}, {"address1_fr": "BOULEVARD MARIA GROENINCKX-DE MAY 12", "address2_fr": "1070 ANDERLECHT", "address1_nl": "MARIA GROENINCKX DE MAYLAAN 12", "address2_nl": "1070 ANDERLECHT", "id": "8399", "lat": "50.84201", "lng": "4.296417", "status": "ACTIVE", "week": "13:00", "sat": ""}, {"address1_fr": "BOULEVARD MAURICE HERBETTE 2", "address2_fr": "1070 ANDERLECHT", "address1_nl": "MAURICE HERBETTELAAN 2", "address2_nl": "1070 ANDERLECHT", "id": "7726", "lat": "50.843722", "lng": "4.312661", "status": "ACTIVE", "week": "17:00", "sat": ""}, {"address1_fr": "BOULEVARD MAURICE LEMONNIER 227", "address2_fr": "1000 BRUXELLES", "address1_nl": "MAURICE LEMONNIERLAAN 227", "address2_nl": "1000 BRUSSEL", "id": "10060", "lat": "50.84032", "lng": "4.341144", "status": "ACTIVE", "week": "13:00", "sat": ""}, {"address1_fr": "BOULEVARD PACHÉCO 34", "address2_fr": "1000 BRUXELLES", "address1_nl": "PACHECOLAAN 34", "address2_nl": "1000 BRUSSEL", "id": "16920", "lat": "50.851455", "lng": "4.36201", "status": "ACTIVE", "week": "10:00", "sat": ""}, {"address1_fr": "BOULEVARD PAEPSEM 11A", "address2_fr": "1070 ANDERLECHT", "address1_nl": "PAAPSEMLAAN 11A", "address2_nl": "1070 ANDERLECHT", "id": "8245", "lat": "50.823534", "lng": "4.312951", "status": "ACTIVE", "week": "17:00", "sat": ""}, {"address1_fr": "BOULEVARD POINCARÉ 72-74", "address2_fr": "1070 ANDERLECHT", "address1_nl": "POINCARÉLAAN 72-74", "address2_nl": "1070 ANDERLECHT", "id": "16349", "lat": "50.841219", "lng": "4.339763", "status": "ACTIVE", "week": "13:00", "sat": ""}, {"address1_fr": "BOULEVARD PRINCE DE LIÈGE 122", "address2_fr": "1070 ANDERLECHT", "address1_nl": "PRINS VAN LUIKLAAN 122", "address2_nl": "1070 ANDERLECHT", "id": "8389", "lat": "50.84363", "lng": "4.301328", "status": "ACTIVE", "week": "13:00", "sat": ""}, {"address1_fr": "BOULEVARD SAINT-MICHEL 24-26", "address2_fr": "1040 ETTERBEEK", "address1_nl": "SINT-MICHIELSLAAN 24-26", "address2_nl": "1040 ETTERBEEK", "id": "10192", "lat": "50.835004", "lng": "4.406673", "status": "ACTIVE", "week": "13:00", "sat": ""}, {"address1_fr": "BOULEVARD SYLVAIN DUPUIS 387", "address2_fr": "1070 ANDERLECHT", "address1_nl": "SYLVAIN DUPUISLAAN 387", "address2_nl": "1070 ANDERLECHT", "id": "7725", "lat": "50.837872", "lng": "4.283988", "status": "ACTIVE", "week": "17:00", "sat": ""}, {"address1_fr": "BOULEVARD SYLVAIN DUPUIS 248", "address2_fr": "1070 ANDERLECHT", "address1_nl": "SYLVAIN DUPUISLAAN 248", "address2_nl": "1070 ANDERLECHT", "id": "7724", "lat": "50.837139", "lng": "4.293421", "status": "ACTIVE", "week": "13:00", "sat": ""}, {"address1_fr": "CHAUSSÉE D&#39;ALSEMBERG 1247", "address2_fr": "1180 UCCLE", "address1_nl": "ALSEMBERGSESTEENWEG 1247", "address2_nl": "1180 UKKEL", "id": "6937", "lat": "50.785093", "lng": "4.328394", "status": "ACTIVE", "week": "13:00", "sat": ""}, {"address1_fr": "CHAUSSÉE D&#39;ALSEMBERG 409-411", "address2_fr": "1180 UCCLE", "address1_nl": "ALSEMBERGSESTEENWEG 409-411", "address2_nl": "1180 UKKEL", "id": "6939", "lat": "50.813926", "lng": "4.33873", "status": "ACTIVE", "week": "13:00", "sat": ""}, {"address1_fr": "CHAUSSÉE D&#39;ALSEMBERG 856", "address2_fr": "1180 UCCLE", "address1_nl": "ALSEMBERGSESTEENWEG 856", "address2_nl": "1180 UKKEL", "id": "6940", "lat": "50.796191", "lng": "4.335512", "status": "ACTIVE", "week": "10:00", "sat": ""}, {"address1_fr": "CHAUSSÉE D&#39;ANVERS 483", "address2_fr": "1000 BRUXELLES", "address1_nl": "ANTWERPSESTEENWEG 483", "address2_nl": "1000 BRUSSEL", "id": "7049", "lat": "50.871175", "lng": "4.360825", "status": "ACTIVE", "week": "10:00", "sat": ""}, {"address1_fr": "CHAUSSÉE D&#39;ANVERS 59", "address2_fr": "1000 BRUXELLES", "address1_nl": "ANTWERPSESTEENWEG 59", "address2_nl": "1000 BRUSSEL", "id": "8503", "lat": "50.8619", "lng": "4.356399", "status": "ACTIVE", "week": "13:00", "sat": ""}, {"address1_fr": "CHAUSSÉE D&#39;IXELLES 187", "address2_fr": "1050 IXELLES", "address1_nl": "ELSENSESTEENWEG 187", "address2_nl": "1050 ELSENE", "id": "9748", "lat": "50.83241", "lng": "4.366817", "status": "ACTIVE", "week": "13:00", "sat": ""}, {"address1_fr": "CHAUSSÉE D&#39;IXELLES 27", "address2_fr": "1050 IXELLES", "address1_nl": "ELSENSESTEENWEG 27", "address2_nl": "1050 ELSENE", "id": "9747", "lat": "50.83719", "lng": "4.362233", "status": "ACTIVE", "week": "17:00", "sat": ""}, {"address1_fr": "CHAUSSÉE DE BOITSFORT 15", "address2_fr": "1050 IXELLES", "address1_nl": "BOSVOORDSE STEENWEG 15", "address2_nl": "1050 ELSENE", "id": "9746", "lat": "50.804096", "lng": "4.394572", "status": "ACTIVE", "week": "10:00", "sat": ""}, {"address1_fr": "CHAUSSÉE DE BOONDAEL 109", "address2_fr": "1050 IXELLES", "address1_nl": "BOONDAALSE STEENWEG 109", "address2_nl": "1050 ELSENE", "id": "9866", "lat": "50.825215", "lng": "4.376448", "status": "ACTIVE", "week": "10:00", "sat": ""}, {"address1_fr": "CHAUSSÉE DE BRUXELLES 58", "address2_fr": "1300 WAVRE", "address1_nl": "CHAUSSÉE DE BRUXELLES 58", "address2_nl": "1300 WAVRE", "id": "11323", "lat": "50.72075", "lng": "4.609712", "status": "ACTIVE", "week": "10:00", "sat": ""}, {"address1_fr": "CHAUSSÉE DE BRUXELLES 107", "address2_fr": "1310 LA HULPE", "address1_nl": "CHAUSSÉE DE BRUXELLES 107", "address2_nl": "1310 LA HULPE", "id": "16715", "lat": "50.735104", "lng": "4.474184", "status": "ACTIVE", "week": "10:00", "sat": ""}, {"address1_fr": "CHAUSSÉE DE CHARLEROI 1", "address2_fr": "1370 JODOIGNE", "address1_nl": "CHAUSSÉE DE CHARLEROI 1", "address2_nl": "1370 JODOIGNE", "id": "15870", "lat": "50.720429", "lng": "4.869661", "status": "ACTIVE", "week": "13:00", "sat": ""}, {"address1_fr": "CHAUSSÉE DE CHARLEROI 218", "address2_fr": "1060 SAINT-GILLES", "address1_nl": "CHARLEROISE STEENWEG 218", "address2_nl": "1060 SINT-GILLIS", "id": "8178", "lat": "50.823972", "lng": "4.354114", "status": "ACTIVE", "week": "10:00", "sat": ""}, {"address1_fr": "CHAUSSÉE DE DIELEGHEM 20", "address2_fr": "1090 JETTE", "address1_nl": "DIELEGHEMSE STEENWEG 20", "address2_nl": "1090 JETTE", "id": "10050", "lat": "50.882753", "lng": "4.321319", "status": "ACTIVE", "week": "10:00", "sat": ""}, {"address1_fr": "CHAUSSÉE DE DROGENBOS 235", "address2_fr": "1180 UCCLE", "address1_nl": "DROGENBOSSESTEENWEG 235", "address2_nl": "1180 UKKEL", "id": "89669", "lat": "50.785912", "lng": "4.320999", "status": "ACTIVE", "week": "13:00", "sat": ""}, {"address1_fr": "CHAUSSÉE DE FOREST 142", "address2_fr": "1060 SAINT-GILLES", "address1_nl": "VORSTSE STEENWEG 142", "address2_nl": "1060 SINT-GILLIS", "id": "8181", "lat": "50.829075", "lng": "4.33917", "status": "ACTIVE", "week": "10:00", "sat": ""}, {"address1_fr": "CHAUSSÉE DE GAND 1096", "address2_fr": "1082 BERCHEM-SAINTE-AGATHE", "address1_nl": "GENTSESTEENWEG 1096", "address2_nl": "1082 SINT-AGATHA-BERCHEM", "id": "9657", "lat": "50.861752", "lng": "4.301561", "status": "ACTIVE", "week": "13:00", "sat": ""}, {"address1_fr": "CHAUSSÉE DE GAND 738", "address2_fr": "1080 MOLENBEEK-SAINT-JEAN", "address1_nl": "STEENWEG OP GENT 738", "address2_nl": "1080 SINT-JANS-MOLENBEEK", "id": "9630", "lat": "50.860649", "lng": "4.305329", "status": "ACTIVE", "week": "13:00", "sat": ""}, {"address1_fr": "CHAUSSÉE DE GAND 608-610", "address2_fr": "1080 MOLENBEEK-SAINT-JEAN", "address1_nl": "STEENWEG OP GENT 608-610", "address2_nl": "1080 SINT-JANS-MOLENBEEK", "id": "9981", "lat": "50.859008", "lng": "4.310891", "status": "ACTIVE", "week": "13:00", "sat": ""}, {"address1_fr": "CHAUSSÉE DE GAND 349", "address2_fr": "1080 MOLENBEEK-SAINT-JEAN", "address1_nl": "STEENWEG OP GENT 349", "address2_nl": "1080 SINT-JANS-MOLENBEEK", "id": "9629", "lat": "50.857166", "lng": "4.32492", "status": "ACTIVE", "week": "13:00", "sat": ""}, {"address1_fr": "CHAUSSÉE DE GAND 1335", "address2_fr": "1082 BERCHEM-SAINTE-AGATHE", "address1_nl": "GENTSESTEENWEG 1335", "address2_nl": "1082 SINT-AGATHA-BERCHEM", "id": "9980", "lat": "50.870452", "lng": "4.291358", "status": "ACTIVE", "week": "10:00", "sat": ""}, {"address1_fr": "CHAUSSÉE DE HAECHT 1031", "address2_fr": "1140 EVERE", "address1_nl": "HAACHTSESTEENWEG 1031", "address2_nl": "1140 EVERE", "id": "6403", "lat": "50.875313", "lng": "4.40446", "status": "ACTIVE", "week": "17:00", "sat": ""}, {"address1_fr": "CHAUSSÉE DE HAECHT 1788", "address2_fr": "1130 HAREN", "address1_nl": "HAACHTSESTEENWEG 1788", "address2_nl": "1130 HAREN", "id": "6525", "lat": "50.888411", "lng": "4.4247", "status": "ACTIVE", "week": "13:00", "sat": ""}, {"address1_fr": "CHAUSSÉE DE HELMET 136", "address2_fr": "1030 SCHAERBEEK", "address1_nl": "HELMETSESTEENWEG 136", "address2_nl": "1030 SCHAARBEEK", "id": "7826", "lat": "50.872037", "lng": "4.385232", "status": "ACTIVE", "week": "10:00", "sat": ""}, {"address1_fr": "CHAUSSÉE DE HELMET 198-200", "address2_fr": "1030 SCHAERBEEK", "address1_nl": "HELMETSESTEENWEG 198-200", "address2_nl": "1030 SCHAARBEEK", "id": "132701", "lat": "50.87311554", "lng": "4.386795998", "status": "ACTIVE", "week": "17:00", "sat": ""}, {"address1_fr": "CHAUSSÉE DE HELMET 72", "address2_fr": "1030 SCHAERBEEK", "address1_nl": "HELMETSESTEENWEG 72", "address2_nl": "1030 SCHAARBEEK", "id": "7825", "lat": "50.87018967", "lng": "4.382574081", "status": "ACTIVE", "week": "10:00", "sat": ""}, {"address1_fr": "CHAUSSÉE DE HUY 191/1", "address2_fr": "1325 CHAUMONT-GISTOUX", "address1_nl": "CHAUSSÉE DE HUY 191/1", "address2_nl": "1325 CHAUMONT-GISTOUX", "id": "8556", "lat": "50.687088", "lng": "4.69104", "status": "ACTIVE", "week": "17:00", "sat": ""}, {"address1_fr": "CHAUSSÉE DE HUY 98", "address2_fr": "1325 DION-VALMONT", "address1_nl": "CHAUSSÉE DE HUY 98", "address2_nl": "1325 DION-VALMONT", "id": "41563", "lat": "50.697293", "lng": "4.670446", "status": "ACTIVE", "week": "10:00", "sat": ""},